$GPGGA,110809.000,4308.0399,N,00601.0168,E,1,04,1.8,72.8,M,49.0,M,,0000*64
$GPVTG,243.59,T,,M,1.09,N,2.0,K*63
$GPGGA,110810.000,4308.0406,N,00601.0160,E,1,05,1.3,70.2,M,49.0,M,,0000*67
$GPVTG,215.32,T,,M,0.74,N,1.4,K*61
$GPGGA,110811.000,4308.0406,N,00601.0160,E,1,04,1.8,68.8,M,49.0,M,,0000*6F
$GPVTG,203.41,T,,M,0.85,N,1.6,K*6E
$GPGGA,110812.000,4308.0407,N,00601.0159,E,1,05,1.3,68.3,M,49.0,M,,0000*66
$GPVTG,198.90,T,,M,0.90,N,1.7,K*66
$GPGGA,110813.000,4308.0409,N,00601.0154,E,1,05,1.3,66.9,M,49.0,M,,0000*60
$GPVTG,239.04,T,,M,0.60,N,1.1,K*6A
$GPGGA,110814.000,4308.0410,N,00601.0150,E,1,05,1.3,65.1,M,49.0,M,,0000*60
$GPVTG,266.15,T,,M,1.02,N,1.9,K*6D
$GPGGA,112430.000,4307.9947,N,00601.0020,E,1,07,1.3,24.7,M,49.0,M,,0000*66
$GPVTG,204.19,T,,M,0.14,N,0.3,K*68
$GPGGA,112431.000,4307.9947,N,00601.0020,E,1,07,1.3,24.6,M,49.0,M,,0000*66
$GPVTG,153.27,T,,M,0.04,N,0.1,K*67
$GPGGA,112432.000,4307.9947,N,00601.0020,E,1,07,1.3,24.3,M,49.0,M,,0000*60
$GPVTG,50.48,T,,M,0.11,N,0.2,K*5B
$GPGGA,112433.000,4307.9948,N,00601.0020,E,1,07,1.3,23.9,M,49.0,M,,0000*63
$GPVTG,30.98,T,,M,0.15,N,0.3,K*55
$GPGGA,112434.000,4307.9948,N,00601.0020,E,1,07,1.3,23.6,M,49.0,M,,0000*6B
$GPVTG,135.51,T,,M,0.02,N,0.0,K*61
$GPGGA,112435.000,4307.9948,N,00601.0019,E,1,07,1.3,23.5,M,49.0,M,,0000*63
$GPVTG,186.27,T,,M,0.04,N,0.1,K*6F
$GPGGA,112436.000,4307.9948,N,00601.0019,E,1,07,1.3,23.2,M,49.0,M,,0000*67
$GPVTG,35.13,T,,M,0.13,N,0.2,K*54
$GPGGA,112437.000,4307.9948,N,00601.0019,E,1,07,1.3,23.1,M,49.0,M,,0000*65
$GPVTG,94.01,T,,M,0.04,N,0.1,K*59
$GPGGA,112438.000,4307.9948,N,00601.0019,E,1,07,1.3,23.0,M,49.0,M,,0000*6B
$GPVTG,176.50,T,,M,0.05,N,0.1,K*61
$GPGGA,112439.000,4307.9948,N,00601.0019,E,1,07,1.3,22.8,M,49.0,M,,0000*63
$GPVTG,78.57,T,,M,0.03,N,0.1,K*5F
$GPGGA,112440.000,4307.9949,N,00601.0019,E,1,07,1.3,22.6,M,49.0,M,,0000*62
$GPVTG,47.91,T,,M,0.04,N,0.1,K*5E
$GPGGA,112441.000,4307.9949,N,00601.0019,E,1,07,1.3,22.5,M,49.0,M,,0000*60
$GPVTG,40.50,T,,M,0.08,N,0.1,K*58
$GPGGA,112442.000,4307.9949,N,00601.0018,E,1,07,1.3,22.3,M,49.0,M,,0000*64
$GPVTG,56.36,T,,M,0.06,N,0.1,K*51
$GPGGA,112443.000,4307.9949,N,00601.0018,E,1,07,1.3,22.2,M,49.0,M,,0000*64
$GPVTG,184.60,T,,M,0.05,N,0.1,K*6F
$GPGGA,112444.000,4307.9949,N,00601.0018,E,1,07,1.3,22.2,M,49.0,M,,0000*63
$GPVTG,175.24,T,,M,0.09,N,0.2,K*6E
$GPGGA,112445.000,4307.9949,N,00601.0018,E,1,07,1.3,22.1,M,49.0,M,,0000*61
$GPVTG,180.66,T,,M,0.06,N,0.1,K*6E
$GPGGA,112446.000,4307.9949,N,00601.0018,E,1,07,1.3,22.1,M,49.0,M,,0000*62
$GPVTG,180.52,T,,M,0.09,N,0.2,K*65
$GPGGA,112447.000,4307.9949,N,00601.0017,E,1,07,1.3,21.8,M,49.0,M,,0000*66
$GPVTG,40.91,T,,M,0.11,N,0.2,K*5E
$GPGGA,112448.000,4307.9950,N,00601.0017,E,1,07,1.3,21.4,M,49.0,M,,0000*6D
$GPVTG,37.90,T,,M,0.15,N,0.3,K*5A
$GPGGA,112449.000,4307.9950,N,00601.0017,E,1,07,1.3,21.4,M,49.0,M,,0000*6C
$GPVTG,143.10,T,,M,0.05,N,0.1,K*63
$GPGGA,112450.000,4307.9950,N,00601.0017,E,1,07,1.3,21.2,M,49.0,M,,0000*62
$GPVTG,142.95,T,,M,0.03,N,0.1,K*69
$GPGGA,112451.000,4307.9950,N,00601.0017,E,1,07,1.3,20.9,M,49.0,M,,0000*69
$GPVTG,45.82,T,,M,0.12,N,0.2,K*5A
$GPGGA,112452.000,4307.9951,N,00601.0017,E,1,07,1.3,20.5,M,49.0,M,,0000*67
$GPVTG,27.93,T,,M,0.17,N,0.3,K*5A
$GPGGA,112453.000,4307.9951,N,00601.0017,E,1,07,1.3,20.5,M,49.0,M,,0000*66
$GPVTG,150.84,T,,M,0.07,N,0.1,K*6E
$GPGGA,112454.000,4307.9951,N,00601.0017,E,1,07,1.3,20.2,M,49.0,M,,0000*66
$GPVTG,23.68,T,,M,0.09,N,0.2,K*54
$GPGGA,112455.000,4307.9951,N,00601.0017,E,1,07,1.3,20.1,M,49.0,M,,0000*64
$GPVTG,159.46,T,,M,0.04,N,0.1,K*6A
$GPGGA,112456.000,4307.9951,N,00601.0016,E,1,07,1.3,19.9,M,49.0,M,,0000*64
$GPVTG,105.15,T,,M,0.02,N,0.0,K*62
$GPGGA,112457.000,4307.9951,N,00601.0016,E,1,07,1.3,19.8,M,49.0,M,,0000*64
$GPVTG,119.19,T,,M,0.03,N,0.1,K*63
$GPGGA,112458.000,4307.9951,N,00601.0016,E,1,07,1.3,19.8,M,49.0,M,,0000*6B
$GPVTG,191.87,T,,M,0.14,N,0.3,K*60
$GPGGA,112459.000,4307.9953,N,00601.0015,E,1,07,1.3,18.0,M,49.0,M,,0000*62
$GPVTG,218.02,T,,M,0.24,N,0.4,K*6B
$GPGGA,112500.000,4307.9953,N,00601.0015,E,1,07,1.3,17.8,M,49.0,M,,0000*68
$GPVTG,24.54,T,,M,0.47,N,0.9,K*5D
$GPGGA,112501.000,4307.9960,N,00601.0018,E,1,07,1.3,14.9,M,49.0,M,,0000*66
$GPVTG,20.29,T,,M,1.50,N,2.8,K*57
$GPGGA,112502.000,4307.9966,N,00601.0022,E,1,07,1.3,15.4,M,49.0,M,,0000*66
$GPVTG,24.33,T,,M,2.66,N,4.9,K*59
$GPGGA,112503.000,4307.9974,N,00601.0026,E,1,07,1.3,15.7,M,49.0,M,,0000*63
$GPVTG,18.29,T,,M,3.08,N,5.7,K*5B
$GPGGA,112504.000,4307.9982,N,00601.0029,E,1,07,1.3,15.0,M,49.0,M,,0000*65
$GPVTG,28.47,T,,M,2.05,N,3.8,K*55
$GPGGA,112505.000,4307.9985,N,00601.0032,E,1,07,1.3,15.3,M,49.0,M,,0000*6A
$GPVTG,38.32,T,,M,1.55,N,2.9,K*50
$GPGGA,112506.000,4307.9989,N,00601.0035,E,1,07,1.3,15.1,M,49.0,M,,0000*60
$GPVTG,24.90,T,,M,1.78,N,3.3,K*51
$GPGGA,112507.000,4307.9994,N,00601.0036,E,1,07,1.3,14.8,M,49.0,M,,0000*66
$GPVTG,1.30,T,,M,0.92,N,1.7,K*6F
$GPGGA,112508.000,4307.9996,N,00601.0035,E,1,07,1.3,14.3,M,49.0,M,,0000*63
$GPVTG,157.68,T,,M,0.75,N,1.4,K*6A
$GPGGA,112509.000,4307.9991,N,00601.0038,E,1,06,3.1,14.2,M,49.0,M,,0000*68
$GPVTG,163.18,T,,M,2.95,N,5.5,K*63
$GPGGA,112510.000,4307.9980,N,00601.0044,E,1,07,1.3,14.2,M,49.0,M,,0000*6A
$GPVTG,155.80,T,,M,4.98,N,9.2,K*67
$GPGGA,112511.000,4307.9965,N,00601.0050,E,1,06,3.1,16.0,M,49.0,M,,0000*64
$GPVTG,160.01,T,,M,4.97,N,9.2,K*67
$GPGGA,112512.000,4307.9951,N,00601.0055,E,1,06,3.1,14.8,M,49.0,M,,0000*6F
$GPVTG,159.82,T,,M,5.02,N,9.3,K*6A
$GPGGA,112513.000,4307.9938,N,00601.0059,E,1,07,1.3,14.7,M,49.0,M,,0000*63
$GPVTG,163.23,T,,M,4.67,N,8.7,K*6F
$GPGGA,112514.000,4307.9926,N,00601.0065,E,1,07,1.3,15.1,M,49.0,M,,0000*63
$GPVTG,157.93,T,,M,4.76,N,8.8,K*6C
$GPGGA,112515.000,4307.9914,N,00601.0076,E,1,07,1.3,16.2,M,49.0,M,,0000*61
$GPVTG,154.29,T,,M,4.19,N,7.8,K*68
$GPGGA,112516.000,4307.9902,N,00601.0084,E,1,07,1.3,17.6,M,49.0,M,,0000*6D
$GPVTG,157.09,T,,M,3.43,N,6.3,K*6B
$GPGGA,112517.000,4307.9896,N,00601.0092,E,1,07,1.3,19.4,M,49.0,M,,0000*6B
$GPVTG,148.36,T,,M,2.74,N,5.1,K*6D
$GPGGA,112518.000,4307.9891,N,00601.0096,E,1,07,1.3,20.5,M,49.0,M,,0000*6C
$GPVTG,142.35,T,,M,1.45,N,2.7,K*64
$GPGGA,112519.000,4307.9890,N,00601.0103,E,1,07,1.3,21.7,M,49.0,M,,0000*62
$GPVTG,113.87,T,,M,0.48,N,0.9,K*69
$GPGGA,112520.000,4307.9889,N,00601.0108,E,1,07,1.3,22.8,M,49.0,M,,0000*67
$GPVTG,95.25,T,,M,0.29,N,0.5,K*55
$GPGGA,112521.000,4307.9889,N,00601.0112,E,1,07,1.3,23.8,M,49.0,M,,0000*6C
$GPVTG,90.59,T,,M,0.20,N,0.4,K*53
$GPGGA,112522.000,4307.9890,N,00601.0113,E,1,07,1.3,24.3,M,49.0,M,,0000*6A
$GPVTG,85.01,T,,M,0.15,N,0.3,K*5B
$GPGGA,112523.000,4307.9891,N,00601.0113,E,1,07,1.3,24.6,M,49.0,M,,0000*6F
$GPVTG,86.46,T,,M,0.14,N,0.3,K*5A
$GPGGA,112524.000,4307.9891,N,00601.0114,E,1,07,1.3,25.1,M,49.0,M,,0000*69
$GPVTG,84.71,T,,M,0.15,N,0.3,K*5D
$GPGGA,112525.000,4307.9891,N,00601.0115,E,1,07,1.3,25.5,M,49.0,M,,0000*6D
$GPVTG,83.52,T,,M,0.15,N,0.3,K*5B
$GPGGA,112526.000,4307.9892,N,00601.0116,E,1,07,1.3,25.9,M,49.0,M,,0000*62
$GPVTG,89.34,T,,M,0.16,N,0.3,K*52
$GPGGA,112527.000,4307.9892,N,00601.0118,E,1,07,1.3,26.3,M,49.0,M,,0000*64
$GPVTG,95.60,T,,M,0.17,N,0.3,K*5F
$GPGGA,112528.000,4307.9892,N,00601.0119,E,1,07,1.3,26.6,M,49.0,M,,0000*6F
$GPVTG,101.92,T,,M,0.17,N,0.3,K*6E
$GPGGA,112529.000,4307.9893,N,00601.0120,E,1,07,1.3,26.8,M,49.0,M,,0000*6B
$GPVTG,104.27,T,,M,0.14,N,0.3,K*66
$GPGGA,112530.000,4307.9893,N,00601.0121,E,1,07,1.3,27.1,M,49.0,M,,0000*6A
$GPVTG,105.26,T,,M,0.14,N,0.3,K*66
$GPGGA,112531.000,4307.9893,N,00601.0122,E,1,07,1.3,27.2,M,49.0,M,,0000*6B
$GPVTG,105.84,T,,M,0.14,N,0.3,K*6E
$GPGGA,112532.000,4307.9893,N,00601.0123,E,1,07,1.3,27.4,M,49.0,M,,0000*6F
$GPVTG,106.47,T,,M,0.14,N,0.3,K*62
$GPGGA,112533.000,4307.9893,N,00601.0123,E,1,07,1.3,27.5,M,49.0,M,,0000*6F
$GPVTG,131.92,T,,M,0.28,N,0.5,K*67
$GPGGA,112534.000,4307.9891,N,00601.0125,E,1,07,1.3,27.5,M,49.0,M,,0000*6C
$GPVTG,144.54,T,,M,1.35,N,2.5,K*60
$GPGGA,112535.000,4307.9886,N,00601.0130,E,1,07,1.3,27.3,M,49.0,M,,0000*69
$GPVTG,146.40,T,,M,3.05,N,5.6,K*62
$GPGGA,112536.000,4307.9875,N,00601.0138,E,1,07,1.3,27.1,M,49.0,M,,0000*6C
$GPVTG,152.65,T,,M,4.89,N,9.1,K*68
$GPGGA,112537.000,4307.9860,N,00601.0144,E,1,07,1.3,26.9,M,49.0,M,,0000*6B
$GPVTG,169.64,T,,M,6.11,N,11.3,K*59
$GPGGA,112538.000,4307.9840,N,00601.0144,E,1,07,1.3,26.6,M,49.0,M,,0000*69
$GPVTG,183.75,T,,M,7.73,N,14.3,K*5D
$GPGGA,112539.000,4307.9817,N,00601.0135,E,1,07,1.3,26.6,M,49.0,M,,0000*6C
$GPVTG,197.12,T,,M,8.87,N,16.4,K*58
$GPGGA,112540.000,4307.9791,N,00601.0120,E,1,06,1.3,26.2,M,49.0,M,,0000*62
$GPVTG,206.69,T,,M,10.00,N,18.5,K*66
$GPGGA,112541.000,4307.9762,N,00601.0102,E,1,07,1.3,26.2,M,49.0,M,,0000*6E
$GPVTG,208.51,T,,M,11.63,N,21.5,K*6D
$GPGGA,112542.000,4307.9731,N,00601.0079,E,1,06,3.1,26.1,M,49.0,M,,0000*64
$GPVTG,208.31,T,,M,12.80,N,23.7,K*65
$GPGGA,112543.000,4307.9698,N,00601.0051,E,1,07,1.3,25.7,M,49.0,M,,0000*69
$GPVTG,208.42,T,,M,13.59,N,25.2,K*67
$GPGGA,112544.000,4307.9662,N,00601.0020,E,1,07,1.3,25.1,M,49.0,M,,0000*6B
$GPVTG,210.31,T,,M,15.29,N,28.3,K*67
$GPGGA,112545.000,4307.9623,N,00600.9985,E,1,07,1.3,24.4,M,49.0,M,,0000*65
$GPVTG,210.17,T,,M,16.98,N,31.4,K*65
$GPGGA,112546.000,4307.9578,N,00600.9949,E,1,07,1.3,24.0,M,49.0,M,,0000*6F
$GPVTG,209.47,T,,M,18.52,N,34.3,K*62
$GPGGA,112547.000,4307.9531,N,00600.9911,E,1,07,1.3,23.6,M,49.0,M,,0000*6F
$GPVTG,206.34,T,,M,19.44,N,36.0,K*6E
$GPGGA,112548.000,4307.9482,N,00600.9872,E,1,07,1.3,23.0,M,49.0,M,,0000*6B
$GPVTG,209.40,T,,M,19.84,N,36.7,K*69
$GPGGA,112549.000,4307.9432,N,00600.9834,E,1,07,1.3,22.8,M,49.0,M,,0000*6A
$GPVTG,209.20,T,,M,20.23,N,37.5,K*6B
$GPGGA,112550.000,4307.9383,N,00600.9794,E,1,07,1.3,22.4,M,49.0,M,,0000*66
$GPVTG,209.20,T,,M,19.96,N,37.0,K*6A
$GPGGA,112551.000,4307.9335,N,00600.9757,E,1,07,1.3,22.1,M,49.0,M,,0000*60
$GPVTG,209.69,T,,M,19.11,N,35.4,K*6E
$GPGGA,112552.000,4307.9290,N,00600.9724,E,1,07,1.3,22.1,M,49.0,M,,0000*69
$GPVTG,210.02,T,,M,18.01,N,33.4,K*6D
$GPGGA,112553.000,4307.9248,N,00600.9689,E,1,07,1.3,21.8,M,49.0,M,,0000*61
$GPVTG,210.65,T,,M,17.13,N,31.7,K*61
$GPGGA,112554.000,4307.9207,N,00600.9656,E,1,07,1.3,21.7,M,49.0,M,,0000*60
$GPVTG,210.37,T,,M,16.72,N,31.0,K*67
$GPGGA,112555.000,4307.9168,N,00600.9626,E,1,07,1.3,21.6,M,49.0,M,,0000*6D
$GPVTG,209.55,T,,M,16.01,N,29.6,K*60
$GPGGA,112556.000,4307.9130,N,00600.9596,E,1,07,1.3,21.4,M,49.0,M,,0000*69
$GPVTG,208.75,T,,M,15.29,N,28.3,K*6E
$GPGGA,112557.000,4307.9093,N,00600.9568,E,1,07,1.3,21.1,M,49.0,M,,0000*64
$GPVTG,208.66,T,,M,14.76,N,27.3,K*68
$GPGGA,112558.000,4307.9058,N,00600.9542,E,1,07,1.3,20.9,M,49.0,M,,0000*6D
$GPVTG,208.07,T,,M,14.35,N,26.6,K*6C
$GPGGA,112559.000,4307.9023,N,00600.9517,E,1,07,1.3,20.7,M,49.0,M,,0000*6E
$GPVTG,207.88,T,,M,14.09,N,26.1,K*6C
$GPGGA,112600.000,4307.8989,N,00600.9493,E,1,07,1.3,20.4,M,49.0,M,,0000*67
$GPVTG,207.87,T,,M,13.55,N,25.1,K*6E
$GPGGA,112601.000,4307.8957,N,00600.9469,E,1,07,1.3,20.1,M,49.0,M,,0000*65
$GPVTG,207.60,T,,M,12.76,N,23.6,K*66
$GPGGA,112602.000,4307.8927,N,00600.9447,E,1,07,1.3,19.7,M,49.0,M,,0000*61
$GPVTG,207.40,T,,M,11.84,N,21.9,K*67
$GPGGA,112603.000,4307.8900,N,00600.9427,E,1,07,1.3,19.4,M,49.0,M,,0000*60
$GPVTG,207.18,T,,M,10.55,N,19.5,K*60
$GPGGA,112604.000,4307.8877,N,00600.9410,E,1,06,1.3,19.2,M,49.0,M,,0000*65
$GPVTG,207.39,T,,M,8.86,N,16.4,K*5A
$GPGGA,112605.000,4307.8857,N,00600.9396,E,1,07,1.3,19.0,M,49.0,M,,0000*6C
$GPVTG,208.29,T,,M,7.87,N,14.6,K*5A
$GPGGA,112606.000,4307.8840,N,00600.9380,E,1,06,3.1,18.7,M,49.0,M,,0000*69
$GPVTG,213.16,T,,M,6.86,N,12.7,K*5B
$GPGGA,112607.000,4307.8827,N,00600.9370,E,1,07,1.3,18.9,M,49.0,M,,0000*69
$GPVTG,208.70,T,,M,4.70,N,8.7,K*61
$GPGGA,112608.000,4307.8820,N,00600.9366,E,1,07,1.3,19.1,M,49.0,M,,0000*6F
$GPVTG,209.44,T,,M,2.19,N,4.1,K*64
$GPGGA,112609.000,4307.8818,N,00600.9363,E,1,07,1.3,19.1,M,49.0,M,,0000*60
$GPVTG,191.67,T,,M,0.27,N,0.5,K*68
$GPGGA,112610.000,4307.8819,N,00600.9359,E,1,07,1.3,18.8,M,49.0,M,,0000*68
$GPVTG,258.89,T,,M,0.25,N,0.5,K*6C
$GPGGA,112611.000,4307.8820,N,00600.9356,E,1,07,1.3,18.6,M,49.0,M,,0000*62
$GPVTG,245.00,T,,M,0.23,N,0.4,K*66
$GPGGA,112612.000,4307.8821,N,00600.9357,E,1,07,1.3,18.6,M,49.0,M,,0000*61
$GPVTG,144.98,T,,M,0.08,N,0.2,K*6A
$GPGGA,112613.000,4307.8822,N,00600.9356,E,1,07,1.3,18.6,M,49.0,M,,0000*62
$GPVTG,202.56,T,,M,0.11,N,0.2,K*61
$GPGGA,112614.000,4307.8822,N,00600.9357,E,1,07,1.3,18.7,M,49.0,M,,0000*65
$GPVTG,127.50,T,,M,0.09,N,0.2,K*6A
$GPGGA,112615.000,4307.8822,N,00600.9363,E,1,06,1.3,19.5,M,49.0,M,,0000*61
$GPVTG,144.94,T,,M,0.12,N,0.2,K*6D
$GPGGA,112616.000,4307.8823,N,00600.9362,E,1,07,1.3,19.5,M,49.0,M,,0000*63
$GPVTG,129.29,T,,M,0.08,N,0.2,K*6B
$GPGGA,112617.000,4307.8823,N,00600.9364,E,1,07,1.3,19.7,M,49.0,M,,0000*66
$GPVTG,145.86,T,,M,0.13,N,0.2,K*6E
$GPGGA,112618.000,4307.8823,N,00600.9365,E,1,07,1.3,19.9,M,49.0,M,,0000*66
$GPVTG,148.30,T,,M,0.14,N,0.3,K*68
$GPGGA,112619.000,4307.8824,N,00600.9367,E,1,07,1.3,20.1,M,49.0,M,,0000*60
$GPVTG,207.64,T,,M,0.09,N,0.2,K*6C
$GPGGA,112620.000,4307.8824,N,00600.9367,E,1,07,1.3,20.3,M,49.0,M,,0000*68
$GPVTG,259.04,T,,M,0.22,N,0.4,K*6E
$GPGGA,112621.000,4307.8825,N,00600.9369,E,1,07,1.3,20.5,M,49.0,M,,0000*60
$GPVTG,159.12,T,,M,0.00,N,0.0,K*6E
$GPGGA,112622.000,4307.8825,N,00600.9370,E,1,07,1.3,20.6,M,49.0,M,,0000*68
$GPVTG,46.95,T,,M,0.08,N,0.1,K*57
$GPGGA,112623.000,4307.8826,N,00600.9372,E,1,07,1.3,20.7,M,49.0,M,,0000*69
$GPVTG,80.00,T,,M,0.15,N,0.3,K*5F
$GPGGA,112624.000,4307.8827,N,00600.9373,E,1,07,1.3,20.9,M,49.0,M,,0000*60
$GPVTG,51.10,T,,M,0.05,N,0.1,K*51
$GPGGA,112625.000,4307.8827,N,00600.9375,E,1,07,1.3,21.0,M,49.0,M,,0000*6F
$GPVTG,115.19,T,,M,0.16,N,0.3,K*69
$GPGGA,112626.000,4307.8828,N,00600.9377,E,1,07,1.3,21.2,M,49.0,M,,0000*63
$GPVTG,102.52,T,,M,0.17,N,0.3,K*61
$GPGGA,112627.000,4307.8828,N,00600.9378,E,1,07,1.3,21.3,M,49.0,M,,0000*6C
$GPVTG,144.89,T,,M,0.05,N,0.1,K*64
$GPGGA,112628.000,4307.8829,N,00600.9378,E,1,07,1.3,21.3,M,49.0,M,,0000*62
$GPVTG,268.42,T,,M,0.09,N,0.2,K*61
$GPGGA,112629.000,4307.8829,N,00600.9379,E,1,07,1.3,21.2,M,49.0,M,,0000*63
$GPVTG,41.90,T,,M,0.08,N,0.1,K*55
$GPGGA,112630.000,4307.8830,N,00600.9379,E,1,07,1.3,21.2,M,49.0,M,,0000*63
$GPVTG,53.96,T,,M,0.09,N,0.2,K*52
$GPGGA,112631.000,4307.8831,N,00600.9380,E,1,07,1.3,21.1,M,49.0,M,,0000*66
$GPVTG,48.70,T,,M,0.09,N,0.2,K*50
$GPGGA,112632.000,4307.8831,N,00600.9381,E,1,07,1.3,21.0,M,49.0,M,,0000*65
$GPVTG,24.89,T,,M,0.08,N,0.1,K*5E
$GPGGA,112633.000,4307.8832,N,00600.9382,E,1,07,1.3,21.0,M,49.0,M,,0000*64
$GPVTG,79.61,T,,M,0.17,N,0.3,K*5C
$GPGGA,112634.000,4307.8832,N,00600.9383,E,1,07,1.3,21.1,M,49.0,M,,0000*63
$GPVTG,91.11,T,,M,0.25,N,0.5,K*5A
$GPGGA,112635.000,4307.8833,N,00600.9384,E,1,07,1.3,21.1,M,49.0,M,,0000*64
$GPVTG,111.57,T,,M,0.14,N,0.3,K*65
$GPGGA,112636.000,4307.8833,N,00600.9384,E,1,07,1.3,21.0,M,49.0,M,,0000*66
$GPVTG,122.03,T,,M,0.17,N,0.3,K*67
$GPGGA,112637.000,4307.8833,N,00600.9385,E,1,07,1.3,21.0,M,49.0,M,,0000*66
$GPVTG,181.92,T,,M,0.09,N,0.2,K*68
$GPGGA,112638.000,4307.8833,N,00600.9384,E,1,07,1.3,20.9,M,49.0,M,,0000*60
$GPVTG,202.10,T,,M,0.48,N,0.9,K*64
$GPGGA,112639.000,4307.8829,N,00600.9381,E,1,07,1.3,20.7,M,49.0,M,,0000*61
$GPVTG,207.11,T,,M,2.69,N,5.0,K*6D
$GPGGA,112640.000,4307.8817,N,00600.9374,E,1,07,1.3,20.6,M,49.0,M,,0000*69
$GPVTG,204.28,T,,M,6.19,N,11.5,K*57
$GPGGA,112641.000,4307.8796,N,00600.9362,E,1,07,1.3,20.4,M,49.0,M,,0000*6B
$GPVTG,204.46,T,,M,9.45,N,17.5,K*5F
$GPGGA,112642.000,4307.8771,N,00600.9345,E,1,07,1.3,20.0,M,49.0,M,,0000*60
$GPVTG,207.02,T,,M,10.59,N,19.6,K*64
$GPGGA,112643.000,4307.8742,N,00600.9325,E,1,07,1.3,20.2,M,49.0,M,,0000*65
$GPVTG,207.05,T,,M,11.71,N,21.7,K*62
$GPGGA,112644.000,4307.8709,N,00600.9300,E,1,07,1.3,20.3,M,49.0,M,,0000*6B
$GPVTG,208.43,T,,M,13.76,N,25.5,K*6C
$GPGGA,112645.000,4307.8672,N,00600.9271,E,1,07,1.3,20.4,M,49.0,M,,0000*67
$GPVTG,210.06,T,,M,15.65,N,29.0,K*69
$GPGGA,112646.000,4307.8632,N,00600.9237,E,1,07,1.3,20.4,M,49.0,M,,0000*62
$GPVTG,211.16,T,,M,17.01,N,31.5,K*65
$GPGGA,112647.000,4307.8589,N,00600.9198,E,1,07,1.3,20.1,M,49.0,M,,0000*63
$GPVTG,213.07,T,,M,18.27,N,33.8,K*63
$GPGGA,112648.000,4307.8544,N,00600.9153,E,1,07,1.3,19.8,M,49.0,M,,0000*69
$GPVTG,215.47,T,,M,20.33,N,37.7,K*64
$GPGGA,112649.000,4307.8497,N,00600.9102,E,1,07,1.3,19.5,M,49.0,M,,0000*6E
$GPVTG,218.74,T,,M,21.34,N,39.5,K*63
$GPGGA,112650.000,4307.8449,N,00600.9045,E,1,07,1.3,19.5,M,49.0,M,,0000*67
$GPVTG,221.58,T,,M,22.44,N,41.6,K*6F
$GPGGA,112651.000,4307.8401,N,00600.8982,E,1,07,1.3,19.7,M,49.0,M,,0000*6B
$GPVTG,224.10,T,,M,23.82,N,44.1,K*6F
$GPGGA,112652.000,4307.8352,N,00600.8914,E,1,07,1.3,18.8,M,49.0,M,,0000*68
$GPVTG,225.59,T,,M,24.15,N,44.7,K*6C
$GPGGA,112653.000,4307.8305,N,00600.8845,E,1,07,1.3,18.2,M,49.0,M,,0000*64
$GPVTG,226.57,T,,M,24.14,N,44.7,K*60
$GPGGA,112654.000,4307.8258,N,00600.8776,E,1,07,1.3,17.6,M,49.0,M,,0000*6E
$GPVTG,227.57,T,,M,24.07,N,44.6,K*62
$GPGGA,112655.000,4307.8213,N,00600.8704,E,1,07,1.3,17.0,M,49.0,M,,0000*63
$GPVTG,229.79,T,,M,23.91,N,44.3,K*6D
$GPGGA,112656.000,4307.8170,N,00600.8632,E,1,07,1.3,17.6,M,49.0,M,,0000*64
$GPVTG,232.67,T,,M,23.57,N,43.7,K*61
$GPGGA,112657.000,4307.8133,N,00600.8563,E,1,07,1.3,17.4,M,49.0,M,,0000*67
$GPVTG,235.87,T,,M,23.03,N,42.6,K*69
$GPGGA,112658.000,4307.8098,N,00600.8489,E,1,06,3.1,17.3,M,49.0,M,,0000*6B
$GPVTG,237.20,T,,M,23.47,N,43.5,K*64
$GPGGA,112659.000,4307.8062,N,00600.8409,E,1,06,3.1,17.1,M,49.0,M,,0000*65
$GPVTG,238.22,T,,M,24.95,N,46.2,K*63
$GPGGA,112700.000,4307.8028,N,00600.8322,E,1,07,1.3,16.3,M,49.0,M,,0000*6A
$GPVTG,239.97,T,,M,24.47,N,45.3,K*61
$GPGGA,112701.000,4307.7997,N,00600.8232,E,1,07,1.3,15.1,M,49.0,M,,0000*68
$GPVTG,242.63,T,,M,24.99,N,46.3,K*66
$GPGGA,112702.000,4307.7967,N,00600.8142,E,1,07,1.3,14.2,M,49.0,M,,0000*62
$GPVTG,243.73,T,,M,25.07,N,46.4,K*67
$GPGGA,112703.000,4307.7935,N,00600.8056,E,1,07,1.3,14.0,M,49.0,M,,0000*62
$GPVTG,242.05,T,,M,24.67,N,45.7,K*60
$GPGGA,112704.000,4307.7905,N,00600.7974,E,1,08,1.0,14.5,M,49.0,M,,0000*69
$GPVTG,244.01,T,,M,23.32,N,43.2,K*66
$GPGGA,112705.000,4307.7878,N,00600.7895,E,1,08,1.0,15.2,M,49.0,M,,0000*6B
$GPVTG,245.82,T,,M,22.32,N,41.3,K*6E
$GPGGA,112706.000,4307.7859,N,00600.7815,E,1,07,1.2,13.3,M,49.0,M,,0000*69
$GPVTG,247.72,T,,M,21.11,N,39.1,K*6C
$GPGGA,112707.000,4307.7842,N,00600.7736,E,1,07,1.2,11.5,M,49.0,M,,0000*68
$GPVTG,249.91,T,,M,21.11,N,39.1,K*6F
$GPGGA,112708.000,4307.7823,N,00600.7656,E,1,07,1.2,11.7,M,49.0,M,,0000*65
$GPVTG,251.09,T,,M,22.00,N,40.7,K*6C
$GPGGA,112709.000,4307.7805,N,00600.7579,E,1,06,1.3,10.5,M,49.0,M,,0000*6D
$GPVTG,250.70,T,,M,21.18,N,39.2,K*62
$GPGGA,112710.000,4307.7783,N,00600.7509,E,1,06,1.3,10.8,M,49.0,M,,0000*6E
$GPVTG,251.22,T,,M,20.32,N,37.6,K*67
$GPGGA,112711.000,4307.7767,N,00600.7439,E,1,08,1.0,10.7,M,49.0,M,,0000*65
$GPVTG,251.76,T,,M,19.01,N,35.2,K*6A
$GPGGA,112712.000,4307.7748,N,00600.7377,E,1,08,1.0,10.7,M,49.0,M,,0000*66
$GPVTG,249.37,T,,M,18.18,N,33.7,K*6C
$GPGGA,112713.000,4307.7728,N,00600.7316,E,1,08,1.0,11.1,M,49.0,M,,0000*61
$GPVTG,246.70,T,,M,16.69,N,30.9,K*65
$GPGGA,112714.000,4307.7711,N,00600.7265,E,1,08,1.0,11.3,M,49.0,M,,0000*6B
$GPVTG,243.70,T,,M,14.15,N,26.2,K*65
$GPGGA,112715.000,4307.7696,N,00600.7224,E,1,08,1.0,11.6,M,49.0,M,,0000*64
$GPVTG,245.11,T,,M,11.61,N,21.5,K*62
$GPGGA,112716.000,4307.7678,N,00600.7191,E,1,08,1.0,12.3,M,49.0,M,,0000*6C
$GPVTG,245.06,T,,M,10.45,N,19.4,K*69
$GPGGA,112717.000,4307.7666,N,00600.7160,E,1,08,1.0,12.9,M,49.0,M,,0000*66
$GPVTG,244.58,T,,M,8.82,N,16.3,K*59
$GPGGA,112718.000,4307.7657,N,00600.7139,E,1,08,1.0,13.4,M,49.0,M,,0000*6B
$GPVTG,246.17,T,,M,5.56,N,10.3,K*52
$GPGGA,112719.000,4307.7654,N,00600.7127,E,1,08,1.0,14.0,M,49.0,M,,0000*65
$GPVTG,247.04,T,,M,2.47,N,4.6,K*66
$GPGGA,112720.000,4307.7656,N,00600.7125,E,1,08,1.0,15.0,M,49.0,M,,0000*6E
$GPVTG,257.66,T,,M,0.32,N,0.6,K*67
$GPGGA,112721.000,4307.7656,N,00600.7130,E,1,08,1.0,14.5,M,49.0,M,,0000*6F
$GPVTG,78.20,T,,M,0.24,N,0.4,K*5F
$GPGGA,112722.000,4307.7655,N,00600.7132,E,1,08,1.0,15.2,M,49.0,M,,0000*6B
$GPVTG,53.97,T,,M,0.12,N,0.2,K*59
$GPGGA,112723.000,4307.7654,N,00600.7132,E,1,08,1.0,16.2,M,49.0,M,,0000*68
$GPVTG,344.32,T,,M,0.18,N,0.3,K*68
$GPGGA,112724.000,4307.7654,N,00600.7133,E,1,08,1.0,17.2,M,49.0,M,,0000*6F
$GPVTG,334.11,T,,M,0.49,N,0.9,K*60
$GPGGA,112725.000,4307.7655,N,00600.7132,E,1,07,1.4,17.9,M,49.0,M,,0000*6E
$GPVTG,325.83,T,,M,0.82,N,1.5,K*61
$GPGGA,112726.000,4307.7660,N,00600.7125,E,1,07,1.4,17.2,M,49.0,M,,0000*66
$GPVTG,269.94,T,,M,1.40,N,2.6,K*61
$GPGGA,112727.000,4307.7660,N,00600.7114,E,1,07,1.4,17.3,M,49.0,M,,0000*64
$GPVTG,251.63,T,,M,4.01,N,7.4,K*65
$GPGGA,112728.000,4307.7656,N,00600.7094,E,1,07,1.4,17.4,M,49.0,M,,0000*60
$GPVTG,256.72,T,,M,5.99,N,11.1,K*50
$GPGGA,112729.000,4307.7661,N,00600.7064,E,1,08,1.0,16.4,M,49.0,M,,0000*60
$GPVTG,279.50,T,,M,7.59,N,14.1,K*56
$GPGGA,112730.000,4307.7680,N,00600.7026,E,1,08,1.0,17.4,M,49.0,M,,0000*60
$GPVTG,305.54,T,,M,10.44,N,19.3,K*6D
$GPGGA,112731.000,4307.7704,N,00600.6997,E,1,08,1.0,17.5,M,49.0,M,,0000*6F
$GPVTG,323.54,T,,M,11.00,N,20.4,K*65
$GPGGA,112732.000,4307.7736,N,00600.6975,E,1,07,1.1,18.0,M,49.0,M,,0000*65
$GPVTG,335.17,T,,M,13.11,N,24.3,K*64
$GPGGA,112733.000,4307.7774,N,00600.6954,E,1,08,1.0,18.2,M,49.0,M,,0000*6D
$GPVTG,337.95,T,,M,14.52,N,26.9,K*64
$GPGGA,112734.000,4307.7813,N,00600.6933,E,1,08,1.0,18.3,M,49.0,M,,0000*64
$GPVTG,337.86,T,,M,14.18,N,26.3,K*62
$GPGGA,112735.000,4307.7852,N,00600.6918,E,1,08,1.0,17.0,M,49.0,M,,0000*65
$GPVTG,337.38,T,,M,13.47,N,25.0,K*6A
$GPGGA,112736.000,4307.7884,N,00600.6901,E,1,08,1.0,17.3,M,49.0,M,,0000*66
$GPVTG,343.27,T,,M,11.87,N,22.0,K*6E
$GPGGA,112737.000,4307.7914,N,00600.6893,E,1,07,1.3,17.8,M,49.0,M,,0000*62
$GPVTG,358.07,T,,M,10.70,N,19.8,K*6F
$GPGGA,112738.000,4307.7940,N,00600.6901,E,1,08,1.0,16.4,M,49.0,M,,0000*67
$GPVTG,13.43,T,,M,9.19,N,17.0,K*62
$GPGGA,112739.000,4307.7964,N,00600.6913,E,1,05,4.5,15.7,M,49.0,M,,0000*6E
$GPVTG,16.74,T,,M,8.16,N,15.1,K*6E
$GPGGA,112740.000,4307.7991,N,00600.6927,E,1,07,1.4,16.2,M,49.0,M,,0000*6D
$GPVTG,18.35,T,,M,8.07,N,14.9,K*6C
$GPGGA,112741.000,4307.8004,N,00600.6963,E,1,08,1.0,15.9,M,49.0,M,,0000*65
$GPVTG,51.73,T,,M,8.79,N,16.3,K*62
$GPGGA,112742.000,4307.8016,N,00600.7040,E,1,08,1.0,15.6,M,49.0,M,,0000*63
$GPVTG,62.74,T,,M,13.71,N,25.4,K*50
$GPGGA,112743.000,4307.8033,N,00600.7084,E,1,08,1.0,15.5,M,49.0,M,,0000*6E
$GPVTG,60.44,T,,M,12.85,N,23.8,K*51
$GPGGA,112744.000,4307.8053,N,00600.7127,E,1,08,1.0,16.0,M,49.0,M,,0000*61
$GPVTG,60.54,T,,M,12.26,N,22.7,K*57
$GPGGA,112745.000,4307.8070,N,00600.7164,E,1,08,1.0,16.2,M,49.0,M,,0000*64
$GPVTG,59.48,T,,M,11.54,N,21.4,K*56
$GPGGA,112746.000,4307.8085,N,00600.7200,E,1,08,1.0,16.2,M,49.0,M,,0000*6C
$GPVTG,60.67,T,,M,10.91,N,20.2,K*5E
$GPGGA,112747.000,4307.8099,N,00600.7235,E,1,08,1.0,16.0,M,49.0,M,,0000*64
$GPVTG,60.93,T,,M,10.22,N,18.9,K*5D
$GPGGA,112748.000,4307.8110,N,00600.7272,E,1,08,1.0,15.9,M,49.0,M,,0000*62
$GPVTG,64.81,T,,M,9.57,N,17.7,K*61
$GPGGA,112749.000,4307.8121,N,00600.7310,E,1,07,1.3,16.1,M,49.0,M,,0000*63
$GPVTG,68.87,T,,M,9.29,N,17.2,K*67
$GPGGA,112750.000,4307.8126,N,00600.7337,E,1,08,1.0,16.8,M,49.0,M,,0000*6C
$GPVTG,70.76,T,,M,6.76,N,12.5,K*67
$GPGGA,112751.000,4307.8129,N,00600.7356,E,1,08,1.0,17.5,M,49.0,M,,0000*69
$GPVTG,86.10,T,,M,4.40,N,8.1,K*56
$GPGGA,112752.000,4307.8126,N,00600.7363,E,1,08,1.0,17.6,M,49.0,M,,0000*60
$GPVTG,119.66,T,,M,2.46,N,4.5,K*68
$GPGGA,112753.000,4307.8125,N,00600.7369,E,1,08,1.0,18.0,M,49.0,M,,0000*61
$GPVTG,119.72,T,,M,1.53,N,2.8,K*61
$GPGGA,112754.000,4307.8119,N,00600.7372,E,1,08,1.0,18.2,M,49.0,M,,0000*61
$GPVTG,118.46,T,,M,1.60,N,3.0,K*6E
$GPGGA,112755.000,4307.8117,N,00600.7372,E,1,08,1.0,16.7,M,49.0,M,,0000*65
$GPVTG,129.59,T,,M,0.64,N,1.2,K*67
$GPGGA,112756.000,4307.8118,N,00600.7371,E,1,07,1.1,13.7,M,49.0,M,,0000*61
$GPVTG,207.56,T,,M,0.49,N,0.9,K*62
$GPGGA,112757.000,4307.8112,N,00600.7368,E,1,07,1.1,15.3,M,49.0,M,,0000*60
$GPVTG,217.94,T,,M,0.79,N,1.5,K*63
$GPGGA,112758.000,4307.8107,N,00600.7367,E,1,07,1.1,16.7,M,49.0,M,,0000*63
$GPVTG,213.64,T,,M,0.46,N,0.9,K*69
$GPGGA,112759.000,4307.8106,N,00600.7368,E,1,07,1.1,17.8,M,49.0,M,,0000*62
$GPVTG,110.64,T,,M,0.17,N,0.3,K*67
$GPGGA,112800.000,4307.8105,N,00600.7369,E,1,07,1.1,18.9,M,49.0,M,,0000*6D
$GPVTG,169.38,T,,M,0.12,N,0.2,K*64
$GPGGA,112801.000,4307.8103,N,00600.7370,E,1,06,1.1,20.4,M,49.0,M,,0000*65
$GPVTG,82.06,T,,M,0.19,N,0.4,K*50
$GPGGA,112802.000,4307.8102,N,00600.7373,E,1,06,1.1,22.4,M,49.0,M,,0000*66
$GPVTG,79.63,T,,M,0.45,N,0.8,K*52
$GPGGA,112803.000,4307.8102,N,00600.7370,E,1,06,1.1,22.1,M,49.0,M,,0000*61
$GPVTG,218.69,T,,M,0.12,N,0.2,K*65
$GPGGA,112804.000,4307.8099,N,00600.7364,E,1,06,1.1,22.5,M,49.0,M,,0000*64
$GPVTG,209.74,T,,M,0.35,N,0.6,K*68
$GPGGA,112805.000,4307.8095,N,00600.7360,E,1,06,1.1,24.0,M,49.0,M,,0000*6E
$GPVTG,231.24,T,,M,0.46,N,0.9,K*6D
$GPGGA,112806.000,4307.8093,N,00600.7361,E,1,06,1.1,26.2,M,49.0,M,,0000*6A
$GPVTG,153.49,T,,M,0.16,N,0.3,K*6E
$GPGGA,112807.000,4307.8093,N,00600.7360,E,1,07,1.1,26.7,M,49.0,M,,0000*6E
$GPVTG,111.05,T,,M,0.34,N,0.6,K*65
$GPGGA,112808.000,4307.8089,N,00600.7353,E,1,07,1.1,27.6,M,49.0,M,,0000*6A
$GPVTG,85.50,T,,M,0.11,N,0.2,K*5A
$GPGGA,112809.000,4307.8089,N,00600.7349,E,1,07,1.1,27.1,M,49.0,M,,0000*67
$GPVTG,298.94,T,,M,0.17,N,0.3,K*6B
$GPGGA,112810.000,4307.8089,N,00600.7346,E,1,07,1.1,27.2,M,49.0,M,,0000*63
$GPVTG,209.52,T,,M,0.31,N,0.6,K*68
$GPGGA,112811.000,4307.8092,N,00600.7349,E,1,07,1.1,26.9,M,49.0,M,,0000*6D
$GPVTG,241.20,T,,M,0.13,N,0.2,K*65
$GPGGA,112812.000,4307.8092,N,00600.7348,E,1,07,1.1,27.4,M,49.0,M,,0000*63
$GPVTG,137.33,T,,M,0.33,N,0.6,K*63
$GPGGA,112813.000,4307.8089,N,00600.7344,E,1,07,1.1,27.6,M,49.0,M,,0000*66
$GPVTG,112.26,T,,M,0.48,N,0.9,K*63
$GPGGA,112814.000,4307.8086,N,00600.7340,E,1,07,1.1,28.6,M,49.0,M,,0000*65
$GPVTG,86.30,T,,M,0.46,N,0.8,K*57
$GPGGA,112815.000,4307.8086,N,00600.7337,E,1,07,1.1,27.7,M,49.0,M,,0000*6A
$GPVTG,17.51,T,,M,0.38,N,0.7,K*5E
$GPGGA,112816.000,4307.8086,N,00600.7334,E,1,07,1.1,27.4,M,49.0,M,,0000*69
$GPVTG,91.75,T,,M,0.19,N,0.4,K*56
$GPGGA,112817.000,4307.8085,N,00600.7333,E,1,07,1.1,26.9,M,49.0,M,,0000*60
$GPVTG,105.40,T,,M,0.34,N,0.6,K*61
$GPGGA,112818.000,4307.8084,N,00600.7330,E,1,07,1.1,26.6,M,49.0,M,,0000*62
$GPVTG,139.34,T,,M,0.23,N,0.4,K*69
$GPGGA,112819.000,4307.8082,N,00600.7327,E,1,07,1.1,26.5,M,49.0,M,,0000*60
$GPVTG,138.94,T,,M,0.24,N,0.4,K*65
$GPGGA,112820.000,4307.8080,N,00600.7324,E,1,07,1.1,26.5,M,49.0,M,,0000*6B
$GPVTG,165.28,T,,M,0.29,N,0.5,K*66
$GPGGA,112821.000,4307.8078,N,00600.7320,E,1,07,1.1,26.4,M,49.0,M,,0000*68
$GPVTG,217.35,T,,M,0.66,N,1.2,K*61
$GPGGA,112822.000,4307.8076,N,00600.7317,E,1,06,1.3,26.4,M,49.0,M,,0000*62
$GPVTG,159.72,T,,M,0.15,N,0.3,K*6F
$GPGGA,112823.000,4307.8075,N,00600.7315,E,1,06,1.3,26.6,M,49.0,M,,0000*60
$GPVTG,88.92,T,,M,0.39,N,0.7,K*56
$GPGGA,112824.000,4307.8074,N,00600.7312,E,1,06,1.3,26.5,M,49.0,M,,0000*62
$GPVTG,209.72,T,,M,0.17,N,0.3,K*6B
$GPGGA,112825.000,4307.8075,N,00600.7305,E,1,06,1.3,26.3,M,49.0,M,,0000*62
$GPVTG,343.18,T,,M,0.24,N,0.4,K*6F
$GPGGA,112826.000,4307.8076,N,00600.7299,E,1,06,1.3,26.1,M,49.0,M,,0000*64
$GPVTG,294.84,T,,M,0.67,N,1.2,K*61
$GPGGA,112827.000,4307.8079,N,00600.7288,E,1,07,1.3,25.7,M,49.0,M,,0000*6E
$GPVTG,331.88,T,,M,0.67,N,1.2,K*63
$GPGGA,112828.000,4307.8078,N,00600.7287,E,1,08,1.0,27.0,M,49.0,M,,0000*66
$GPVTG,317.62,T,,M,0.24,N,0.4,K*63
$GPGGA,112829.000,4307.8077,N,00600.7287,E,1,08,1.0,26.2,M,49.0,M,,0000*6B
$GPVTG,251.88,T,,M,0.21,N,0.4,K*61
$GPGGA,112830.000,4307.8075,N,00600.7287,E,1,08,1.0,26.8,M,49.0,M,,0000*6B
$GPVTG,39.96,T,,M,0.15,N,0.3,K*52
$GPGGA,112831.000,4307.8075,N,00600.7289,E,1,08,1.0,26.3,M,49.0,M,,0000*6F
$GPVTG,59.73,T,,M,0.55,N,1.0,K*59
$GPGGA,112832.000,4307.8075,N,00600.7291,E,1,08,1.0,25.5,M,49.0,M,,0000*60
$GPVTG,90.08,T,,M,0.35,N,0.6,K*51
$GPGGA,112833.000,4307.8074,N,00600.7293,E,1,08,1.0,24.4,M,49.0,M,,0000*62
$GPVTG,111.40,T,,M,0.19,N,0.4,K*69
$GPGGA,112834.000,4307.8073,N,00600.7295,E,1,08,1.0,23.5,M,49.0,M,,0000*62
$GPVTG,59.71,T,,M,0.21,N,0.4,K*5D
$GPGGA,112835.000,4307.8073,N,00600.7297,E,1,08,1.0,22.6,M,49.0,M,,0000*63
$GPVTG,51.83,T,,M,0.47,N,0.9,K*55
$GPGGA,112836.000,4307.8073,N,00600.7299,E,1,08,1.0,21.7,M,49.0,M,,0000*6C
$GPVTG,37.42,T,,M,0.09,N,0.2,K*59
$GPGGA,112837.000,4307.8072,N,00600.7300,E,1,08,1.0,20.8,M,49.0,M,,0000*63
$GPVTG,228.85,T,,M,0.30,N,0.6,K*60
$GPGGA,112838.000,4307.8071,N,00600.7301,E,1,08,1.0,20.0,M,49.0,M,,0000*66
$GPVTG,226.16,T,,M,0.28,N,0.5,K*6E
$GPGGA,112839.000,4307.8071,N,00600.7302,E,1,08,1.0,19.2,M,49.0,M,,0000*6C
$GPVTG,198.13,T,,M,0.19,N,0.4,K*6E
$GPGGA,112840.000,4307.8070,N,00600.7304,E,1,08,1.0,18.3,M,49.0,M,,0000*65
$GPVTG,74.97,T,,M,0.63,N,1.2,K*5B
$GPGGA,112841.000,4307.8070,N,00600.7307,E,1,08,1.0,17.4,M,49.0,M,,0000*6F
$GPVTG,122.30,T,,M,0.22,N,0.4,K*66
$GPGGA,112842.000,4307.8069,N,00600.7309,E,1,08,1.0,16.6,M,49.0,M,,0000*69
$GPVTG,206.44,T,,M,0.21,N,0.4,K*63
$GPGGA,112843.000,4307.8069,N,00600.7310,E,1,08,1.0,16.0,M,49.0,M,,0000*66
$GPVTG,37.09,T,,M,0.15,N,0.3,K*5A
$GPGGA,112844.000,4307.8069,N,00600.7314,E,1,08,1.0,15.2,M,49.0,M,,0000*64
$GPVTG,87.06,T,,M,0.13,N,0.2,K*59
$GPGGA,112845.000,4307.8073,N,00600.7322,E,1,08,1.0,14.0,M,49.0,M,,0000*68
$GPVTG,61.20,T,,M,0.22,N,0.4,K*51
$GPGGA,112846.000,4307.8075,N,00600.7328,E,1,08,1.0,13.5,M,49.0,M,,0000*65
$GPVTG,49.55,T,,M,0.63,N,1.2,K*5B
$GPGGA,112847.000,4307.8081,N,00600.7339,E,1,08,1.0,12.2,M,49.0,M,,0000*69
$GPVTG,61.87,T,,M,0.80,N,1.5,K*54
$GPGGA,112848.000,4307.8085,N,00600.7347,E,1,08,1.0,11.0,M,49.0,M,,0000*6A
$GPVTG,82.55,T,,M,0.52,N,1.0,K*5C
$GPGGA,112849.000,4307.8088,N,00600.7354,E,1,08,1.0,10.0,M,49.0,M,,0000*65
$GPVTG,62.00,T,,M,0.46,N,0.9,K*5F
$GPGGA,112850.000,4307.8090,N,00600.7360,E,1,08,1.0,9.3,M,49.0,M,,0000*58
$GPVTG,48.98,T,,M,0.74,N,1.4,K*5B
$GPGGA,112851.000,4307.8091,N,00600.7363,E,1,07,1.1,8.6,M,49.0,M,,0000*51
$GPVTG,66.47,T,,M,0.35,N,0.7,K*52
$GPGGA,112852.000,4307.8091,N,00600.7365,E,1,07,1.1,8.1,M,49.0,M,,0000*53
$GPVTG,82.88,T,,M,0.25,N,0.5,K*58
$GPGGA,112853.000,4307.8094,N,00600.7371,E,1,07,1.1,7.3,M,49.0,M,,0000*5F
$GPVTG,64.52,T,,M,0.54,N,1.0,K*55
$GPGGA,112854.000,4307.8097,N,00600.7378,E,1,08,1.0,6.5,M,49.0,M,,0000*5B
$GPVTG,55.15,T,,M,0.91,N,1.7,K*5A
$GPGGA,112855.000,4307.8100,N,00600.7386,E,1,08,1.0,5.6,M,49.0,M,,0000*54
$GPVTG,67.73,T,,M,0.33,N,0.6,K*53
$GPGGA,112856.000,4307.8102,N,00600.7391,E,1,08,1.0,4.7,M,49.0,M,,0000*53
$GPVTG,68.68,T,,M,0.49,N,0.9,K*54
$GPGGA,112857.000,4307.8103,N,00600.7395,E,1,08,1.0,3.9,M,49.0,M,,0000*5E
$GPVTG,75.93,T,,M,0.59,N,1.1,K*54
$GPGGA,112858.000,4307.8106,N,00600.7402,E,1,08,1.0,3.0,M,49.0,M,,0000*54
$GPVTG,57.15,T,,M,0.91,N,1.7,K*58
$GPGGA,112859.000,4307.8108,N,00600.7407,E,1,09,0.9,2.8,M,49.0,M,,0000*5E
$GPVTG,58.36,T,,M,0.86,N,1.6,K*51
$GPGGA,112900.000,4307.8108,N,00600.7409,E,1,09,0.9,2.1,M,49.0,M,,0000*54
$GPVTG,56.98,T,,M,0.49,N,0.9,K*56
$GPGGA,112901.000,4307.8108,N,00600.7411,E,1,09,0.9,1.8,M,49.0,M,,0000*56
$GPVTG,44.92,T,,M,0.59,N,1.1,K*57
$GPGGA,112902.000,4307.8110,N,00600.7414,E,1,08,0.9,1.1,M,49.0,M,,0000*51
$GPVTG,43.61,T,,M,0.22,N,0.4,K*54
$GPGGA,112903.000,4307.8111,N,00600.7414,E,1,08,0.9,1.1,M,49.0,M,,0000*51
$GPVTG,57.11,T,,M,0.50,N,0.9,K*5E
$GPGGA,112904.000,4307.8111,N,00600.7416,E,1,08,0.9,0.8,M,49.0,M,,0000*5C
$GPVTG,35.58,T,,M,0.18,N,0.3,K*51
$GPGGA,112905.000,4307.8112,N,00600.7418,E,1,09,0.9,0.3,M,49.0,M,,0000*5A
$GPVTG,41.23,T,,M,0.57,N,1.1,K*56
$GPGGA,112906.000,4307.8112,N,00600.7421,E,1,09,0.9,-0.1,M,49.0,M,,0000*7C
$GPVTG,40.43,T,,M,0.36,N,0.7,K*51
$GPGGA,112907.000,4307.8111,N,00600.7421,E,1,09,0.9,-0.2,M,49.0,M,,0000*7D
$GPVTG,208.41,T,,M,0.32,N,0.6,K*68
$GPGGA,112908.000,4307.8112,N,00600.7417,E,1,09,0.9,0.6,M,49.0,M,,0000*5D
$GPVTG,220.83,T,,M,0.43,N,0.8,K*64
$GPGGA,112909.000,4307.8111,N,00600.7414,E,1,09,0.9,0.9,M,49.0,M,,0000*53
$GPVTG,208.76,T,,M,0.50,N,0.9,K*67
$GPGGA,112910.000,4307.8110,N,00600.7413,E,1,09,0.9,1.0,M,49.0,M,,0000*55
$GPVTG,216.80,T,,M,0.28,N,0.5,K*62
$GPGGA,112911.000,4307.8109,N,00600.7415,E,1,08,1.0,0.4,M,49.0,M,,0000*56
$GPVTG,186.69,T,,M,0.14,N,0.3,K*66
$GPGGA,112912.000,4307.8110,N,00600.7415,E,1,08,1.0,-1.4,M,49.0,M,,0000*71
$GPVTG,218.02,T,,M,0.67,N,1.2,K*6B
$GPGGA,112913.000,4307.8109,N,00600.7415,E,1,08,1.0,-1.5,M,49.0,M,,0000*79
$GPVTG,201.03,T,,M,0.04,N,0.1,K*65
$GPGGA,112914.000,4307.8108,N,00600.7416,E,1,07,1.2,-2.9,M,49.0,M,,0000*7E
$GPVTG,43.51,T,,M,0.69,N,1.3,K*5E
$GPGGA,112915.000,4307.8110,N,00600.7413,E,1,08,1.0,-1.2,M,49.0,M,,0000*76
$GPVTG,107.60,T,,M,0.47,N,0.9,K*6A
$GPGGA,112916.000,4307.8109,N,00600.7416,E,1,08,1.0,-0.5,M,49.0,M,,0000*7E
$GPVTG,121.51,T,,M,1.95,N,3.6,K*6E
$GPGGA,112917.000,4307.8104,N,00600.7425,E,1,09,0.9,0.0,M,49.0,M,,0000*53
$GPVTG,111.57,T,,M,3.04,N,5.6,K*67
$GPGGA,112918.000,4307.8100,N,00600.7437,E,1,09,0.9,1.6,M,49.0,M,,0000*5C
$GPVTG,95.86,T,,M,4.52,N,8.4,K*5D
$GPGGA,112919.000,4307.8098,N,00600.7451,E,1,09,0.9,3.6,M,49.0,M,,0000*5F
$GPVTG,78.26,T,,M,4.95,N,9.2,K*58
$GPGGA,112920.000,4307.8101,N,00600.7468,E,1,09,0.9,5.3,M,49.0,M,,0000*5D
$GPVTG,69.37,T,,M,5.09,N,9.4,K*5A
$GPGGA,112921.000,4307.8107,N,00600.7484,E,1,09,0.9,7.4,M,49.0,M,,0000*5D
$GPVTG,71.62,T,,M,4.29,N,7.9,K*53
$GPGGA,112922.000,4307.8105,N,00600.7495,E,1,09,0.9,9.1,M,49.0,M,,0000*57
$GPVTG,99.58,T,,M,3.29,N,6.1,K*52
$GPGGA,112923.000,4307.8100,N,00600.7502,E,1,09,0.9,10.6,M,49.0,M,,0000*63
$GPVTG,124.78,T,,M,2.47,N,4.6,K*6B
$GPGGA,112924.000,4307.8097,N,00600.7502,E,1,09,0.9,11.8,M,49.0,M,,0000*64
$GPVTG,140.40,T,,M,1.46,N,2.7,K*67
$GPGGA,112925.000,4307.8095,N,00600.7501,E,1,09,0.9,12.6,M,49.0,M,,0000*69
$GPVTG,125.22,T,,M,0.26,N,0.5,K*67
$GPGGA,112926.000,4307.8094,N,00600.7500,E,1,09,0.9,13.3,M,49.0,M,,0000*6E
$GPVTG,64.56,T,,M,0.15,N,0.3,K*56
$GPGGA,112927.000,4307.8094,N,00600.7499,E,1,09,0.9,13.9,M,49.0,M,,0000*64
$GPVTG,70.49,T,,M,0.19,N,0.4,K*56
$GPGGA,112928.000,4307.8093,N,00600.7499,E,1,09,0.9,14.4,M,49.0,M,,0000*66
$GPVTG,346.33,T,,M,0.13,N,0.2,K*61
$GPGGA,112929.000,4307.8093,N,00600.7498,E,1,09,0.9,15.0,M,49.0,M,,0000*63
$GPVTG,58.06,T,,M,0.11,N,0.2,K*59
$GPGGA,112930.000,4307.8093,N,00600.7498,E,1,09,0.9,15.8,M,49.0,M,,0000*63
$GPVTG,44.55,T,,M,0.26,N,0.5,K*51
$GPGGA,112931.000,4307.8093,N,00600.7498,E,1,09,0.9,16.5,M,49.0,M,,0000*6C
$GPVTG,48.27,T,,M,0.25,N,0.5,K*5B
$GPGGA,112932.000,4307.8092,N,00600.7498,E,1,09,0.9,17.1,M,49.0,M,,0000*6B
$GPVTG,48.62,T,,M,0.09,N,0.2,K*53
$GPGGA,112933.000,4307.8092,N,00600.7497,E,1,09,0.9,17.6,M,49.0,M,,0000*62
$GPVTG,357.58,T,,M,0.01,N,0.0,K*6D
$GPGGA,112934.000,4307.8092,N,00600.7496,E,1,09,0.9,18.1,M,49.0,M,,0000*6C
$GPVTG,283.56,T,,M,0.03,N,0.1,K*68
$GPGGA,112935.000,4307.8091,N,00600.7495,E,1,09,0.9,18.6,M,49.0,M,,0000*6A
$GPVTG,278.06,T,,M,0.03,N,0.1,K*69
$GPGGA,112936.000,4307.8091,N,00600.7495,E,1,09,0.9,19.1,M,49.0,M,,0000*6F
$GPVTG,38.29,T,,M,0.12,N,0.2,K*51
$GPGGA,112937.000,4307.8091,N,00600.7495,E,1,09,0.9,19.5,M,49.0,M,,0000*6A
$GPVTG,47.90,T,,M,0.13,N,0.2,K*5A
$GPGGA,112938.000,4307.8091,N,00600.7494,E,1,09,0.9,19.9,M,49.0,M,,0000*68
$GPVTG,295.21,T,,M,0.02,N,0.0,K*6F
$GPGGA,112939.000,4307.8091,N,00600.7494,E,1,09,0.9,20.3,M,49.0,M,,0000*69
$GPVTG,41.99,T,,M,0.20,N,0.4,K*53
$GPGGA,112940.000,4307.8090,N,00600.7494,E,1,09,0.9,20.6,M,49.0,M,,0000*63
$GPVTG,265.51,T,,M,0.03,N,0.1,K*67
$GPGGA,112941.000,4307.8090,N,00600.7493,E,1,09,0.9,20.9,M,49.0,M,,0000*6A
$GPVTG,266.11,T,,M,0.04,N,0.1,K*67
$GPGGA,112942.000,4307.8090,N,00600.7493,E,1,09,0.9,21.1,M,49.0,M,,0000*60
$GPVTG,243.42,T,,M,0.08,N,0.1,K*6A
$GPGGA,112943.000,4307.8089,N,00600.7492,E,1,09,0.9,21.2,M,49.0,M,,0000*6B
$GPVTG,231.10,T,,M,0.11,N,0.2,K*63
$GPGGA,112944.000,4307.8089,N,00600.7492,E,1,09,0.9,21.5,M,49.0,M,,0000*6B
$GPVTG,63.01,T,,M,0.13,N,0.2,K*54
$GPGGA,112945.000,4307.8089,N,00600.7492,E,1,09,0.9,21.7,M,49.0,M,,0000*68
$GPVTG,64.14,T,,M,0.24,N,0.5,K*54
$GPGGA,112946.000,4307.8089,N,00600.7492,E,1,09,0.9,21.7,M,49.0,M,,0000*6B
$GPVTG,267.40,T,,M,0.04,N,0.1,K*62
$GPGGA,112947.000,4307.8088,N,00600.7491,E,1,09,0.9,21.8,M,49.0,M,,0000*67
$GPVTG,222.83,T,,M,0.14,N,0.3,K*6F
$GPGGA,112948.000,4307.8088,N,00600.7491,E,1,09,0.9,21.9,M,49.0,M,,0000*69
$GPVTG,37.09,T,,M,0.10,N,0.2,K*5E
$GPGGA,112949.000,4307.8088,N,00600.7491,E,1,09,0.9,22.0,M,49.0,M,,0000*62
$GPVTG,346.32,T,,M,0.02,N,0.0,K*62
$GPGGA,112950.000,4307.8088,N,00600.7490,E,1,09,0.9,22.0,M,49.0,M,,0000*6B
$GPVTG,221.27,T,,M,0.06,N,0.1,K*63
$GPGGA,112951.000,4307.8087,N,00600.7490,E,1,09,0.9,22.1,M,49.0,M,,0000*64
$GPVTG,225.99,T,,M,0.12,N,0.2,K*64
$GPGGA,112952.000,4307.8087,N,00600.7490,E,1,09,0.9,22.2,M,49.0,M,,0000*64
$GPVTG,141.91,T,,M,0.09,N,0.2,K*67
$GPGGA,112953.000,4307.8087,N,00600.7490,E,1,09,0.9,22.5,M,49.0,M,,0000*62
$GPVTG,86.06,T,,M,0.18,N,0.3,K*52
$GPGGA,112954.000,4307.8087,N,00600.7490,E,1,09,0.9,22.6,M,49.0,M,,0000*66
$GPVTG,116.24,T,,M,0.17,N,0.3,K*65
$GPGGA,112955.000,4307.8087,N,00600.7490,E,1,09,0.9,22.7,M,49.0,M,,0000*66
$GPVTG,129.56,T,,M,0.04,N,0.1,K*6C
$GPGGA,112956.000,4307.8086,N,00600.7491,E,1,09,0.9,22.8,M,49.0,M,,0000*6A
$GPVTG,138.47,T,,M,0.56,N,1.0,K*6B
$GPGGA,112957.000,4307.8082,N,00600.7492,E,1,08,1.1,22.4,M,49.0,M,,0000*68
$GPVTG,151.96,T,,M,1.89,N,3.5,K*6C
$GPGGA,112958.000,4307.8077,N,00600.7497,E,1,08,1.1,22.3,M,49.0,M,,0000*6F
$GPVTG,136.64,T,,M,2.34,N,4.3,K*64
$GPGGA,112959.000,4307.8073,N,00600.7503,E,1,08,0.9,22.2,M,49.0,M,,0000*6E
$GPVTG,125.85,T,,M,1.90,N,3.5,K*65
$GPGGA,113000.000,4307.8069,N,00600.7508,E,1,09,0.9,22.3,M,49.0,M,,0000*6A
$GPVTG,136.65,T,,M,1.46,N,2.7,K*61
$GPGGA,113001.000,4307.8067,N,00600.7512,E,1,09,0.9,22.5,M,49.0,M,,0000*68
$GPVTG,142.60,T,,M,1.13,N,2.1,K*61
$GPGGA,113002.000,4307.8066,N,00600.7514,E,1,09,0.9,22.6,M,49.0,M,,0000*6F
$GPVTG,52.54,T,,M,0.26,N,0.5,K*57
$GPGGA,113003.000,4307.8065,N,00600.7515,E,1,09,0.9,22.7,M,49.0,M,,0000*6D
$GPVTG,15.52,T,,M,0.14,N,0.3,K*55
$GPGGA,113004.000,4307.8065,N,00600.7516,E,1,09,0.9,23.5,M,49.0,M,,0000*6A
$GPVTG,180.98,T,,M,0.31,N,0.6,K*6C
$GPGGA,113005.000,4307.8063,N,00600.7516,E,1,09,0.9,23.3,M,49.0,M,,0000*6B
$GPVTG,205.43,T,,M,0.26,N,0.5,K*61
$GPGGA,113006.000,4307.8063,N,00600.7517,E,1,09,0.9,23.4,M,49.0,M,,0000*6E
$GPVTG,44.71,T,,M,0.08,N,0.2,K*5C
$GPGGA,113007.000,4307.8062,N,00600.7518,E,1,09,0.9,23.5,M,49.0,M,,0000*60
$GPVTG,243.75,T,,M,0.18,N,0.3,K*6D
$GPGGA,113008.000,4307.8062,N,00600.7517,E,1,09,0.9,23.9,M,49.0,M,,0000*6C
$GPVTG,225.67,T,,M,0.25,N,0.5,K*66
$GPGGA,113009.000,4307.8060,N,00600.7518,E,1,09,0.9,24.1,M,49.0,M,,0000*6F
$GPVTG,173.36,T,,M,0.41,N,0.8,K*6D
$GPGGA,113010.000,4307.8059,N,00600.7518,E,1,09,0.9,24.1,M,49.0,M,,0000*6D
$GPVTG,102.39,T,,M,0.02,N,0.0,K*6B
$GPGGA,113011.000,4307.8059,N,00600.7519,E,1,09,0.9,24.2,M,49.0,M,,0000*6E
$GPVTG,154.91,T,,M,0.42,N,0.8,K*66
$GPGGA,113012.000,4307.8056,N,00600.7521,E,1,08,0.9,24.4,M,49.0,M,,0000*6E
$GPVTG,145.52,T,,M,1.43,N,2.6,K*65
$GPGGA,113013.000,4307.8050,N,00600.7525,E,1,09,0.9,24.5,M,49.0,M,,0000*6D
$GPVTG,152.08,T,,M,2.74,N,5.1,K*6B
$GPGGA,113014.000,4307.8037,N,00600.7528,E,1,09,0.9,25.4,M,49.0,M,,0000*66
$GPVTG,166.86,T,,M,5.05,N,9.4,K*62
$GPGGA,113015.000,4307.8018,N,00600.7534,E,1,09,0.9,25.0,M,49.0,M,,0000*63
$GPVTG,171.10,T,,M,7.39,N,13.7,K*5E
$GPGGA,113016.000,4307.7996,N,00600.7538,E,1,09,0.9,24.6,M,49.0,M,,0000*6B
$GPVTG,175.21,T,,M,7.64,N,14.1,K*51
$GPGGA,113017.000,4307.7974,N,00600.7539,E,1,09,0.9,24.2,M,49.0,M,,0000*63
$GPVTG,173.82,T,,M,6.98,N,12.9,K*52
$GPGGA,113018.000,4307.7955,N,00600.7542,E,1,09,0.9,23.5,M,49.0,M,,0000*63
$GPVTG,169.44,T,,M,5.89,N,10.9,K*52
$GPGGA,113019.000,4307.7941,N,00600.7547,E,1,09,0.9,22.3,M,49.0,M,,0000*65
$GPVTG,166.57,T,,M,5.00,N,9.3,K*6C
$GPGGA,113020.000,4307.7929,N,00600.7552,E,1,09,0.9,22.3,M,49.0,M,,0000*65
$GPVTG,159.60,T,,M,3.89,N,7.2,K*6C
$GPGGA,113021.000,4307.7921,N,00600.7557,E,1,09,0.9,22.4,M,49.0,M,,0000*6E
$GPVTG,158.44,T,,M,3.24,N,6.0,K*6F
$GPGGA,113022.000,4307.7913,N,00600.7562,E,1,09,0.9,22.3,M,49.0,M,,0000*6D
$GPVTG,156.45,T,,M,3.11,N,5.8,K*6D
$GPGGA,113023.000,4307.7906,N,00600.7567,E,1,09,0.9,22.3,M,49.0,M,,0000*6D
$GPVTG,158.35,T,,M,3.40,N,6.3,K*68
$GPGGA,113024.000,4307.7896,N,00600.7571,E,1,09,0.9,22.2,M,49.0,M,,0000*64
$GPVTG,160.20,T,,M,3.59,N,6.7,K*6B
$GPGGA,113025.000,4307.7887,N,00600.7575,E,1,09,0.9,22.1,M,49.0,M,,0000*62
$GPVTG,163.73,T,,M,3.42,N,6.3,K*60
$GPGGA,113026.000,4307.7880,N,00600.7578,E,1,09,0.9,22.1,M,49.0,M,,0000*6B
$GPVTG,169.22,T,,M,2.66,N,4.9,K*61
$GPGGA,113027.000,4307.7874,N,00600.7579,E,1,09,0.9,22.2,M,49.0,M,,0000*63
$GPVTG,167.44,T,,M,1.85,N,3.4,K*6B
$GPGGA,113028.000,4307.7870,N,00600.7580,E,1,09,0.9,22.4,M,49.0,M,,0000*68
$GPVTG,168.71,T,,M,1.22,N,2.3,K*69
$GPGGA,113029.000,4307.7866,N,00600.7581,E,1,09,0.9,22.6,M,49.0,M,,0000*6D
$GPVTG,168.53,T,,M,1.15,N,2.1,K*6F
$GPGGA,113030.000,4307.7864,N,00600.7581,E,1,09,0.9,22.7,M,49.0,M,,0000*66
$GPVTG,166.71,T,,M,1.04,N,1.9,K*6A
$GPGGA,113031.000,4307.7861,N,00600.7582,E,1,09,0.9,22.7,M,49.0,M,,0000*61
$GPVTG,168.13,T,,M,0.71,N,1.3,K*69
$GPGGA,113032.000,4307.7859,N,00600.7582,E,1,09,0.9,22.6,M,49.0,M,,0000*68
$GPVTG,167.10,T,,M,0.77,N,1.4,K*64
$GPGGA,113033.000,4307.7857,N,00600.7582,E,1,09,0.9,22.3,M,49.0,M,,0000*62
$GPVTG,171.44,T,,M,0.83,N,1.5,K*68
$GPGGA,113034.000,4307.7854,N,00600.7582,E,1,09,0.9,22.3,M,49.0,M,,0000*66
$GPVTG,162.49,T,,M,1.09,N,2.0,K*62
$GPGGA,113035.000,4307.7850,N,00600.7583,E,1,09,0.9,22.1,M,49.0,M,,0000*60
$GPVTG,165.80,T,,M,1.77,N,3.3,K*6B
$GPGGA,113036.000,4307.7844,N,00600.7582,E,1,09,0.9,21.4,M,49.0,M,,0000*61
$GPVTG,178.50,T,,M,2.42,N,4.5,K*6E
$GPGGA,113037.000,4307.7836,N,00600.7582,E,1,09,0.9,21.2,M,49.0,M,,0000*63
$GPVTG,181.82,T,,M,2.56,N,4.7,K*60
$GPGGA,113038.000,4307.7829,N,00600.7582,E,1,08,1.0,21.0,M,49.0,M,,0000*69
$GPVTG,176.82,T,,M,2.45,N,4.5,K*68
$GPGGA,113039.000,4307.7823,N,00600.7581,E,1,09,0.9,20.8,M,49.0,M,,0000*61
$GPVTG,191.99,T,,M,1.71,N,3.2,K*6F
$GPGGA,113040.000,4307.7818,N,00600.7580,E,1,09,0.9,21.2,M,49.0,M,,0000*6D
$GPVTG,195.01,T,,M,2.51,N,4.6,K*68
$GPGGA,113041.000,4307.7809,N,00600.7577,E,1,09,0.9,21.3,M,49.0,M,,0000*65
$GPVTG,200.58,T,,M,4.05,N,7.5,K*6C
$GPGGA,113042.000,4307.7796,N,00600.7565,E,1,09,0.9,21.1,M,49.0,M,,0000*6E
$GPVTG,221.03,T,,M,5.96,N,11.0,K*58
$GPGGA,113043.000,4307.7783,N,00600.7546,E,1,09,0.9,21.1,M,49.0,M,,0000*6A
$GPVTG,235.01,T,,M,8.19,N,15.2,K*53
$GPGGA,113044.000,4307.7772,N,00600.7515,E,1,08,1.0,21.1,M,49.0,M,,0000*6C
$GPVTG,246.01,T,,M,9.52,N,17.6,K*5F
$GPGGA,113045.000,4307.7763,N,00600.7477,E,1,09,0.9,20.6,M,49.0,M,,0000*67
$GPVTG,250.90,T,,M,11.18,N,20.7,K*62
$GPGGA,113046.000,4307.7753,N,00600.7434,E,1,09,0.9,20.5,M,49.0,M,,0000*63
$GPVTG,252.11,T,,M,11.96,N,22.1,K*6B
$GPGGA,113047.000,4307.7742,N,00600.7387,E,1,09,0.9,20.7,M,49.0,M,,0000*6F
$GPVTG,248.84,T,,M,12.91,N,23.9,K*61
$GPGGA,113048.000,4307.7729,N,00600.7339,E,1,09,0.9,20.8,M,49.0,M,,0000*67
$GPVTG,248.00,T,,M,13.59,N,25.2,K*65
$GPGGA,113049.000,4307.7714,N,00600.7291,E,1,09,0.9,21.4,M,49.0,M,,0000*66
$GPVTG,245.54,T,,M,13.35,N,24.7,K*67
$GPGGA,113050.000,4307.7698,N,00600.7246,E,1,09,0.9,21.8,M,49.0,M,,0000*6D
$GPVTG,243.96,T,,M,12.27,N,22.7,K*6B
$GPGGA,113051.000,4307.7684,N,00600.7207,E,1,09,0.9,22.0,M,49.0,M,,0000*6F
$GPVTG,243.95,T,,M,11.60,N,21.5,K*69
$GPGGA,113052.000,4307.7671,N,00600.7170,E,1,09,0.9,22.3,M,49.0,M,,0000*66
$GPVTG,244.42,T,,M,10.21,N,18.9,K*66
$GPGGA,113053.000,4307.7662,N,00600.7139,E,1,09,0.9,22.5,M,49.0,M,,0000*6E
$GPVTG,250.51,T,,M,7.52,N,13.9,K*58
$GPGGA,113054.000,4307.7659,N,00600.7117,E,1,09,0.9,22.2,M,49.0,M,,0000*6A
$GPVTG,259.50,T,,M,4.65,N,8.6,K*62
$GPGGA,113055.000,4307.7658,N,00600.7106,E,1,09,0.9,22.2,M,49.0,M,,0000*6A
$GPVTG,266.84,T,,M,2.14,N,4.0,K*6D
$GPGGA,113056.000,4307.7659,N,00600.7104,E,1,09,0.9,21.8,M,49.0,M,,0000*63
$GPVTG,291.55,T,,M,0.23,N,0.4,K*6F
$GPGGA,113057.000,4307.7659,N,00600.7104,E,1,09,0.9,22.1,M,49.0,M,,0000*68
$GPVTG,25.31,T,,M,0.06,N,0.1,K*52
$GPGGA,113058.000,4307.7659,N,00600.7104,E,1,09,0.9,22.5,M,49.0,M,,0000*63
$GPVTG,22.50,T,,M,0.06,N,0.1,K*52
$GPGGA,113059.000,4307.7659,N,00600.7105,E,1,09,0.9,22.7,M,49.0,M,,0000*61
$GPVTG,81.68,T,,M,0.09,N,0.2,K*5C
$GPGGA,113100.000,4307.7659,N,00600.7106,E,1,09,0.9,22.8,M,49.0,M,,0000*60
$GPVTG,68.30,T,,M,0.09,N,0.2,K*56
$GPGGA,113101.000,4307.7659,N,00600.7107,E,1,09,0.9,22.9,M,49.0,M,,0000*61
$GPVTG,79.03,T,,M,0.08,N,0.2,K*57
$GPGGA,113102.000,4307.7659,N,00600.7107,E,1,09,0.9,23.1,M,49.0,M,,0000*6B
$GPVTG,96.29,T,,M,0.10,N,0.2,K*57
$GPGGA,113103.000,4307.7660,N,00600.7108,E,1,09,0.9,23.2,M,49.0,M,,0000*6C
$GPVTG,92.06,T,,M,0.10,N,0.2,K*5E
$GPGGA,113104.000,4307.7660,N,00600.7108,E,1,09,0.9,23.3,M,49.0,M,,0000*6A
$GPVTG,76.89,T,,M,0.08,N,0.2,K*5A
$GPGGA,113105.000,4307.7660,N,00600.7109,E,1,09,0.9,23.4,M,49.0,M,,0000*6D
$GPVTG,69.24,T,,M,0.07,N,0.1,K*5F
$GPGGA,113106.000,4307.7660,N,00600.7109,E,1,09,0.9,23.5,M,49.0,M,,0000*6F
$GPVTG,78.01,T,,M,0.07,N,0.1,K*58
$GPGGA,113107.000,4307.7660,N,00600.7109,E,1,09,0.9,23.5,M,49.0,M,,0000*6E
$GPVTG,61.91,T,,M,0.09,N,0.2,K*54
$GPGGA,113108.000,4307.7660,N,00600.7109,E,1,09,0.9,23.6,M,49.0,M,,0000*62
$GPVTG,67.10,T,,M,0.07,N,0.1,K*56
$GPGGA,113109.000,4307.7660,N,00600.7109,E,1,09,0.9,23.7,M,49.0,M,,0000*62
$GPVTG,64.00,T,,M,0.08,N,0.1,K*5B
$GPGGA,113110.000,4307.7660,N,00600.7110,E,1,09,0.9,23.8,M,49.0,M,,0000*6D
$GPVTG,63.43,T,,M,0.08,N,0.1,K*5B
$GPGGA,113111.000,4307.7660,N,00600.7110,E,1,09,0.9,23.9,M,49.0,M,,0000*6D
$GPVTG,78.88,T,,M,0.08,N,0.1,K*56
$GPGGA,113112.000,4307.7660,N,00600.7110,E,1,09,0.9,23.9,M,49.0,M,,0000*6E
$GPVTG,73.93,T,,M,0.07,N,0.1,K*58
$GPGGA,113113.000,4307.7660,N,00600.7110,E,1,09,0.9,24.0,M,49.0,M,,0000*61
$GPVTG,68.91,T,,M,0.08,N,0.1,K*5F
$GPGGA,113114.000,4307.7661,N,00600.7110,E,1,09,0.9,24.1,M,49.0,M,,0000*66
$GPVTG,70.40,T,,M,0.08,N,0.1,K*5A
$GPGGA,113115.000,4307.7661,N,00600.7110,E,1,09,0.9,24.2,M,49.0,M,,0000*64
$GPVTG,52.69,T,,M,0.06,N,0.1,K*5F
$GPGGA,113116.000,4307.7661,N,00600.7110,E,1,09,0.9,24.2,M,49.0,M,,0000*67
$GPVTG,58.96,T,,M,0.07,N,0.1,K*54
$GPGGA,113117.000,4307.7661,N,00600.7110,E,1,09,0.9,24.3,M,49.0,M,,0000*67
$GPVTG,78.50,T,,M,0.08,N,0.1,K*53
$GPGGA,113118.000,4307.7661,N,00600.7110,E,1,09,0.9,24.4,M,49.0,M,,0000*6F
$GPVTG,66.86,T,,M,0.07,N,0.1,K*58
$GPGGA,113119.000,4307.7661,N,00600.7110,E,1,09,0.9,24.5,M,49.0,M,,0000*6F
$GPVTG,72.80,T,,M,0.07,N,0.1,K*5B
$GPGGA,113120.000,4307.7660,N,00600.7110,E,1,09,0.9,24.5,M,49.0,M,,0000*64
$GPVTG,59.04,T,,M,0.07,N,0.1,K*5E
$GPGGA,113121.000,4307.7660,N,00600.7110,E,1,09,0.9,24.6,M,49.0,M,,0000*66
$GPVTG,80.86,T,,M,0.08,N,0.1,K*5F
$GPGGA,113122.000,4307.7660,N,00600.7111,E,1,09,0.9,24.7,M,49.0,M,,0000*65
$GPVTG,49.31,T,,M,0.07,N,0.1,K*59
$GPGGA,113123.000,4307.7660,N,00600.7110,E,1,09,0.9,24.8,M,49.0,M,,0000*6A
$GPVTG,63.32,T,,M,0.06,N,0.1,K*53
$GPGGA,113124.000,4307.7660,N,00600.7110,E,1,09,0.9,24.9,M,49.0,M,,0000*6C
$GPVTG,69.01,T,,M,0.09,N,0.2,K*55
$GPGGA,113125.000,4307.7660,N,00600.7111,E,1,09,0.9,25.0,M,49.0,M,,0000*64
$GPVTG,68.07,T,,M,0.08,N,0.2,K*53
$GPGGA,113126.000,4307.7660,N,00600.7111,E,1,09,0.9,25.0,M,49.0,M,,0000*67
$GPVTG,58.08,T,,M,0.07,N,0.1,K*53
$GPGGA,113127.000,4307.7660,N,00600.7111,E,1,09,0.9,25.1,M,49.0,M,,0000*67
$GPVTG,63.43,T,,M,0.08,N,0.2,K*58
$GPGGA,113128.000,4307.7660,N,00600.7111,E,1,09,0.9,25.2,M,49.0,M,,0000*6B
$GPVTG,72.70,T,,M,0.08,N,0.2,K*58
$GPGGA,113129.000,4307.7660,N,00600.7111,E,1,09,0.9,25.2,M,49.0,M,,0000*6A
$GPVTG,54.71,T,,M,0.08,N,0.1,K*5E
$GPGGA,113130.000,4307.7660,N,00600.7111,E,1,09,0.9,25.3,M,49.0,M,,0000*63
$GPVTG,63.42,T,,M,0.07,N,0.1,K*55
$GPGGA,113131.000,4307.7660,N,00600.7111,E,1,09,0.9,25.4,M,49.0,M,,0000*65
$GPVTG,53.45,T,,M,0.09,N,0.2,K*5C
$GPGGA,113132.000,4307.7660,N,00600.7111,E,1,09,0.9,25.5,M,49.0,M,,0000*67
$GPVTG,68.10,T,,M,0.08,N,0.2,K*55
$GPGGA,113133.000,4307.7660,N,00600.7111,E,1,09,0.9,25.6,M,49.0,M,,0000*65
$GPVTG,55.53,T,,M,0.04,N,0.1,K*53
$GPGGA,113134.000,4307.7660,N,00600.7111,E,1,09,0.9,25.8,M,49.0,M,,0000*6C
$GPVTG,52.23,T,,M,0.04,N,0.1,K*53
$GPGGA,113135.000,4307.7660,N,00600.7111,E,1,09,0.9,25.9,M,49.0,M,,0000*6C
$GPVTG,66.18,T,,M,0.08,N,0.2,K*53
$GPGGA,113136.000,4307.7660,N,00600.7111,E,1,09,0.9,26.0,M,49.0,M,,0000*65
$GPVTG,63.74,T,,M,0.09,N,0.2,K*5D
$GPGGA,113137.000,4307.7659,N,00600.7111,E,1,09,0.9,26.1,M,49.0,M,,0000*6F
$GPVTG,57.77,T,,M,0.04,N,0.1,K*57
$GPGGA,113138.000,4307.7659,N,00600.7111,E,1,09,0.9,26.1,M,49.0,M,,0000*60
$GPVTG,71.13,T,,M,0.08,N,0.1,K*5D
$GPGGA,113139.000,4307.7659,N,00600.7111,E,1,09,0.9,26.2,M,49.0,M,,0000*62
$GPVTG,75.21,T,,M,0.08,N,0.2,K*5B
$GPGGA,113140.000,4307.7659,N,00600.7111,E,1,09,0.9,26.3,M,49.0,M,,0000*6D
$GPVTG,55.31,T,,M,0.10,N,0.2,K*51
$GPGGA,113141.000,4307.7659,N,00600.7111,E,1,09,0.9,26.3,M,49.0,M,,0000*6C
$GPVTG,74.04,T,,M,0.07,N,0.1,K*51
$GPGGA,113142.000,4307.7659,N,00600.7111,E,1,09,0.9,26.4,M,49.0,M,,0000*68
$GPVTG,68.40,T,,M,0.08,N,0.2,K*50
$GPGGA,113143.000,4307.7659,N,00600.7112,E,1,09,0.9,26.4,M,49.0,M,,0000*6A
$GPVTG,67.68,T,,M,0.08,N,0.2,K*55
$GPGGA,113144.000,4307.7659,N,00600.7112,E,1,09,0.9,26.4,M,49.0,M,,0000*6D
$GPVTG,73.84,T,,M,0.09,N,0.2,K*53
$GPGGA,113145.000,4307.7659,N,00600.7112,E,1,09,0.9,26.4,M,49.0,M,,0000*6C
$GPVTG,54.36,T,,M,0.08,N,0.2,K*5E
$GPGGA,113146.000,4307.7659,N,00600.7112,E,1,09,0.9,26.5,M,49.0,M,,0000*6E
$GPVTG,72.90,T,,M,0.09,N,0.2,K*57
$GPGGA,113147.000,4307.7659,N,00600.7112,E,1,09,0.9,26.5,M,49.0,M,,0000*6F
$GPVTG,62.34,T,,M,0.09,N,0.2,K*58
$GPGGA,113148.000,4307.7659,N,00600.7112,E,1,09,0.9,26.5,M,49.0,M,,0000*60
$GPVTG,42.53,T,,M,0.06,N,0.1,K*57
$GPGGA,113149.000,4307.7659,N,00600.7112,E,1,09,0.9,26.4,M,49.0,M,,0000*60
$GPVTG,47.89,T,,M,0.17,N,0.3,K*57
$GPGGA,113150.000,4307.7659,N,00600.7112,E,1,09,0.9,26.5,M,49.0,M,,0000*69
$GPVTG,140.07,T,,M,0.06,N,0.1,K*65
$GPGGA,113151.000,4307.7659,N,00600.7112,E,1,09,0.9,26.6,M,49.0,M,,0000*6B
$GPVTG,75.69,T,,M,0.07,N,0.1,K*5B
$GPGGA,113152.000,4307.7659,N,00600.7112,E,1,09,0.9,26.6,M,49.0,M,,0000*68
$GPVTG,58.86,T,,M,0.09,N,0.2,K*58
$GPGGA,113153.000,4307.7659,N,00600.7112,E,1,09,0.9,26.6,M,49.0,M,,0000*69
$GPVTG,60.03,T,,M,0.09,N,0.2,K*5E
$GPGGA,113154.000,4307.7659,N,00600.7112,E,1,09,0.9,26.6,M,49.0,M,,0000*6E
$GPVTG,66.63,T,,M,0.08,N,0.2,K*5F
$GPGGA,113155.000,4307.7659,N,00600.7112,E,1,09,0.9,26.7,M,49.0,M,,0000*6E
$GPVTG,62.60,T,,M,0.09,N,0.2,K*59
$GPGGA,113156.000,4307.7659,N,00600.7112,E,1,09,0.9,26.7,M,49.0,M,,0000*6D
$GPVTG,58.05,T,,M,0.09,N,0.2,K*53
$GPGGA,113157.000,4307.7659,N,00600.7113,E,1,09,0.9,26.7,M,49.0,M,,0000*6D
$GPVTG,67.44,T,,M,0.09,N,0.2,K*5A
$GPGGA,113158.000,4307.7659,N,00600.7113,E,1,09,0.9,26.7,M,49.0,M,,0000*62
$GPVTG,54.39,T,,M,0.09,N,0.2,K*50
$GPGGA,113159.000,4307.7658,N,00600.7113,E,1,09,0.9,26.7,M,49.0,M,,0000*62
$GPVTG,73.58,T,,M,0.11,N,0.2,K*5B
$GPGGA,113200.000,4307.7658,N,00600.7113,E,1,09,0.9,26.8,M,49.0,M,,0000*62
$GPVTG,65.90,T,,M,0.08,N,0.2,K*50
$GPGGA,113201.000,4307.7658,N,00600.7113,E,1,09,0.9,26.8,M,49.0,M,,0000*63
$GPVTG,64.86,T,,M,0.11,N,0.2,K*5E
$GPGGA,113202.000,4307.7658,N,00600.7113,E,1,09,0.9,26.8,M,49.0,M,,0000*60
$GPVTG,63.75,T,,M,0.09,N,0.2,K*5C
$GPGGA,113203.000,4307.7658,N,00600.7113,E,1,09,0.9,26.9,M,49.0,M,,0000*60
$GPVTG,71.21,T,,M,0.10,N,0.2,K*56
$GPGGA,113204.000,4307.7658,N,00600.7113,E,1,09,0.9,26.9,M,49.0,M,,0000*67
$GPVTG,70.67,T,,M,0.08,N,0.2,K*5C
$GPGGA,113205.000,4307.7658,N,00600.7114,E,1,09,0.9,26.9,M,49.0,M,,0000*61
$GPVTG,61.99,T,,M,0.10,N,0.2,K*54
$GPGGA,113206.000,4307.7657,N,00600.7114,E,1,09,0.9,26.9,M,49.0,M,,0000*6D
$GPVTG,73.27,T,,M,0.08,N,0.2,K*5B
$GPGGA,113207.000,4307.7657,N,00600.7114,E,1,09,0.9,26.9,M,49.0,M,,0000*6C
$GPVTG,72.93,T,,M,0.09,N,0.2,K*54
$GPGGA,113208.000,4307.7657,N,00600.7114,E,1,09,0.9,26.9,M,49.0,M,,0000*63
$GPVTG,72.85,T,,M,0.07,N,0.1,K*5E
$GPGGA,113209.000,4307.7657,N,00600.7112,E,1,09,0.9,26.9,M,49.0,M,,0000*64
$GPVTG,268.83,T,,M,0.68,N,1.3,K*6B
$GPGGA,113210.000,4307.7657,N,00600.7104,E,1,09,0.9,26.8,M,49.0,M,,0000*6A
$GPVTG,271.90,T,,M,3.23,N,6.0,K*69
$GPGGA,113211.000,4307.7658,N,00600.7085,E,1,09,0.9,27.3,M,49.0,M,,0000*66
$GPVTG,276.89,T,,M,5.93,N,11.0,K*5D
$GPGGA,113212.000,4307.7663,N,00600.7059,E,1,09,0.9,27.6,M,49.0,M,,0000*69
$GPVTG,292.12,T,,M,7.78,N,14.4,K*53
$GPGGA,113213.000,4307.7679,N,00600.7029,E,1,09,0.9,27.4,M,49.0,M,,0000*66
$GPVTG,312.50,T,,M,10.00,N,18.5,K*68
$GPGGA,113214.000,4307.7705,N,00600.7005,E,1,09,0.9,27.2,M,49.0,M,,0000*63
$GPVTG,329.08,T,,M,11.39,N,21.1,K*68
$GPGGA,113215.000,4307.7738,N,00600.6985,E,1,09,0.9,27.2,M,49.0,M,,0000*6C
$GPVTG,335.57,T,,M,13.16,N,24.4,K*60
$GPGGA,113216.000,4307.7777,N,00600.6963,E,1,08,0.9,27.2,M,49.0,M,,0000*6D
$GPVTG,337.46,T,,M,14.93,N,27.7,K*68
$GPGGA,113217.000,4307.7818,N,00600.6940,E,1,09,0.9,27.5,M,49.0,M,,0000*6D
$GPVTG,337.16,T,,M,16.36,N,30.3,K*62
$GPGGA,113218.000,4307.7863,N,00600.6914,E,1,09,0.9,27.7,M,49.0,M,,0000*6D
$GPVTG,337.43,T,,M,17.38,N,32.2,K*6E
$GPGGA,113219.000,4307.7910,N,00600.6886,E,1,09,0.9,28.1,M,49.0,M,,0000*6A
$GPVTG,338.57,T,,M,18.84,N,34.9,K*61
$GPGGA,113220.000,4307.7963,N,00600.6858,E,1,09,0.9,28.7,M,49.0,M,,0000*61
$GPVTG,341.48,T,,M,20.34,N,37.7,K*6C
$GPGGA,113221.000,4307.8019,N,00600.6832,E,1,08,1.0,29.2,M,49.0,M,,0000*6A
$GPVTG,342.93,T,,M,21.46,N,39.7,K*63
$GPGGA,113222.000,4307.8078,N,00600.6807,E,1,09,0.9,30.1,M,49.0,M,,0000*6A
$GPVTG,343.46,T,,M,22.67,N,42.0,K*61
$GPGGA,113223.000,4307.8139,N,00600.6780,E,1,09,0.9,31.2,M,49.0,M,,0000*6D
$GPVTG,343.19,T,,M,23.55,N,43.6,K*6C
$GPGGA,113224.000,4307.8203,N,00600.6753,E,1,09,0.9,31.9,M,49.0,M,,0000*65
$GPVTG,343.53,T,,M,24.01,N,44.5,K*60
$GPGGA,113225.000,4307.8269,N,00600.6723,E,1,09,0.9,32.1,M,49.0,M,,0000*64
$GPVTG,341.64,T,,M,25.13,N,46.5,K*66
$GPGGA,113226.000,4307.8337,N,00600.6685,E,1,09,0.9,32.4,M,49.0,M,,0000*65
$GPVTG,336.10,T,,M,26.14,N,48.4,K*6E
$GPGGA,113227.000,4307.8405,N,00600.6638,E,1,09,0.9,33.0,M,49.0,M,,0000*61
$GPVTG,331.41,T,,M,27.47,N,50.9,K*6E
$GPGGA,113228.000,4307.8476,N,00600.6584,E,1,09,0.9,33.3,M,49.0,M,,0000*6D
$GPVTG,329.72,T,,M,28.98,N,53.7,K*67
$GPGGA,113229.000,4307.8547,N,00600.6525,E,1,09,0.9,33.6,M,49.0,M,,0000*61
$GPVTG,328.75,T,,M,29.97,N,55.5,K*6B
$GPGGA,113230.000,4307.8625,N,00600.6467,E,1,09,0.9,34.7,M,49.0,M,,0000*6F
$GPVTG,330.46,T,,M,31.41,N,58.2,K*6A
$GPGGA,113231.000,4307.8702,N,00600.6403,E,1,09,0.9,35.1,M,49.0,M,,0000*6F
$GPVTG,327.47,T,,M,32.24,N,59.7,K*69
$GPGGA,113232.000,4307.8778,N,00600.6331,E,1,09,0.9,35.2,M,49.0,M,,0000*64
$GPVTG,324.16,T,,M,33.39,N,61.8,K*67
$GPGGA,113233.000,4307.8851,N,00600.6248,E,1,09,0.9,35.7,M,49.0,M,,0000*6B
$GPVTG,319.01,T,,M,34.55,N,64.0,K*6F
$GPGGA,113234.000,4307.8922,N,00600.6153,E,1,09,0.9,37.2,M,49.0,M,,0000*67
$GPVTG,315.80,T,,M,35.56,N,65.9,K*60
$GPGGA,113235.000,4307.8995,N,00600.6055,E,1,08,0.9,38.7,M,49.0,M,,0000*66
$GPVTG,316.91,T,,M,36.61,N,67.8,K*67
$GPGGA,113236.000,4307.9072,N,00600.5959,E,1,08,0.9,40.3,M,49.0,M,,0000*69
$GPVTG,319.35,T,,M,37.31,N,69.1,K*65
$GPGGA,113237.000,4307.9156,N,00600.5868,E,1,07,1.1,41.7,M,49.0,M,,0000*6F
$GPVTG,323.15,T,,M,37.68,N,69.8,K*6B
$GPGGA,113238.000,4307.9243,N,00600.5785,E,1,08,0.9,43.0,M,49.0,M,,0000*68
$GPVTG,326.43,T,,M,37.33,N,69.1,K*6A
$GPGGA,113239.000,4307.9330,N,00600.5710,E,1,09,0.9,43.7,M,49.0,M,,0000*66
$GPVTG,327.88,T,,M,35.43,N,65.6,K*62
$GPGGA,113240.000,4307.9410,N,00600.5640,E,1,09,0.9,44.2,M,49.0,M,,0000*6B
$GPVTG,326.75,T,,M,32.58,N,60.3,K*6C
$GPGGA,113241.000,4307.9484,N,00600.5574,E,1,09,0.9,45.0,M,49.0,M,,0000*60
$GPVTG,326.92,T,,M,30.50,N,56.5,K*6C
$GPGGA,113242.000,4307.9552,N,00600.5512,E,1,09,0.9,45.2,M,49.0,M,,0000*6B
$GPVTG,326.94,T,,M,28.42,N,52.6,K*67
$GPGGA,113243.000,4307.9616,N,00600.5457,E,1,09,0.9,45.3,M,49.0,M,,0000*68
$GPVTG,328.47,T,,M,26.34,N,48.8,K*6D
$GPGGA,113244.000,4307.9677,N,00600.5412,E,1,08,1.0,45.3,M,49.0,M,,0000*60
$GPVTG,333.05,T,,M,24.42,N,45.2,K*65
$GPGGA,113245.000,4307.9736,N,00600.5381,E,1,08,1.0,45.4,M,49.0,M,,0000*6F
$GPVTG,339.21,T,,M,22.11,N,40.9,K*67
$GPGGA,113246.000,4307.9786,N,00600.5362,E,1,09,0.9,43.9,M,49.0,M,,0000*68
$GPVTG,347.47,T,,M,20.65,N,38.2,K*6B
$GPGGA,113247.000,4307.9832,N,00600.5393,E,1,08,0.9,41.7,M,49.0,M,,0000*6A
$GPVTG,9.50,T,,M,18.09,N,33.5,K*69
$GPGGA,113248.000,4307.9872,N,00600.5459,E,1,08,1.0,42.7,M,49.0,M,,0000*6B
$GPVTG,29.00,T,,M,18.03,N,33.4,K*55
$GPGGA,113249.000,4307.9896,N,00600.5531,E,1,08,1.0,42.9,M,49.0,M,,0000*61
$GPVTG,47.11,T,,M,17.43,N,32.3,K*50
$GPGGA,113250.000,4307.9910,N,00600.5613,E,1,09,0.9,42.9,M,49.0,M,,0000*6C
$GPVTG,62.37,T,,M,18.66,N,34.6,K*58
$GPGGA,113251.000,4307.9912,N,00600.5691,E,1,09,0.9,43.0,M,49.0,M,,0000*6D
$GPVTG,74.78,T,,M,18.23,N,33.8,K*5C
$GPGGA,113252.000,4307.9920,N,00600.5761,E,1,08,1.0,43.6,M,49.0,M,,0000*6E
$GPVTG,76.07,T,,M,17.11,N,31.7,K*55
$GPGGA,113253.000,4307.9933,N,00600.5825,E,1,09,0.9,45.8,M,49.0,M,,0000*63
$GPVTG,72.48,T,,M,14.66,N,27.2,K*5B
$GPGGA,113254.000,4307.9945,N,00600.5871,E,1,08,0.9,46.6,M,49.0,M,,0000*68
$GPVTG,65.77,T,,M,12.50,N,23.2,K*56
$GPGGA,113255.000,4307.9965,N,00600.5904,E,1,08,0.9,48.3,M,49.0,M,,0000*63
$GPVTG,51.72,T,,M,11.61,N,21.5,K*50
$GPGGA,113256.000,4307.9996,N,00600.5909,E,1,07,0.9,48.6,M,49.0,M,,0000*6B
$GPVTG,22.82,T,,M,9.90,N,18.3,K*60
$GPGGA,113257.000,4308.0027,N,00600.5883,E,1,08,0.9,47.5,M,49.0,M,,0000*6F
$GPVTG,343.12,T,,M,10.31,N,19.1,K*6D
$GPGGA,113258.000,4308.0049,N,00600.5849,E,1,08,0.9,47.1,M,49.0,M,,0000*6A
$GPVTG,320.40,T,,M,12.17,N,22.5,K*65
$GPGGA,113259.000,4308.0065,N,00600.5804,E,1,08,0.9,48.1,M,49.0,M,,0000*63
$GPVTG,302.50,T,,M,12.16,N,22.5,K*65
$GPGGA,113300.000,4308.0083,N,00600.5765,E,1,00,50.0,48.6,M,49.0,M,,0000*5D
$GPVTG,302.50,T,,M,12.16,N,22.5,K*65
$GPGGA,113301.000,4308.0081,N,00600.5722,E,1,08,0.9,49.3,M,49.0,M,,0000*6D
$GPVTG,286.12,T,,M,10.74,N,19.9,K*6C
$GPGGA,113302.000,4308.0071,N,00600.5680,E,1,08,0.9,51.1,M,49.0,M,,0000*63
$GPVTG,275.76,T,,M,10.65,N,19.7,K*6C
$GPGGA,113303.000,4308.0064,N,00600.5634,E,1,09,0.9,55.2,M,49.0,M,,0000*6F
$GPVTG,270.68,T,,M,12.79,N,23.7,K*60
$GPGGA,113304.000,4308.0055,N,00600.5580,E,1,09,0.9,59.6,M,49.0,M,,0000*6E
$GPVTG,270.87,T,,M,12.42,N,23.0,K*6E
$GPGGA,113305.000,4308.0052,N,00600.5528,E,1,08,0.9,61.4,M,49.0,M,,0000*62
$GPVTG,282.16,T,,M,10.33,N,19.1,K*67
$GPGGA,113306.000,4308.0057,N,00600.5487,E,1,08,0.9,61.8,M,49.0,M,,0000*6C
$GPVTG,287.88,T,,M,8.31,N,15.4,K*57
$GPGGA,113307.000,4308.0085,N,00600.5469,E,1,08,0.9,64.4,M,49.0,M,,0000*6B
$GPVTG,321.89,T,,M,8.74,N,16.2,K*5F
$GPGGA,113308.000,4308.0123,N,00600.5475,E,1,08,0.9,66.1,M,49.0,M,,0000*63
$GPVTG,358.31,T,,M,10.56,N,19.5,K*63
$GPGGA,113309.000,4308.0160,N,00600.5510,E,1,08,0.9,66.6,M,49.0,M,,0000*60
$GPVTG,31.08,T,,M,13.58,N,25.2,K*50
$GPGGA,113310.000,4308.0199,N,00600.5546,E,1,09,0.9,65.9,M,49.0,M,,0000*60
$GPVTG,32.56,T,,M,15.54,N,28.8,K*55
$GPGGA,113311.000,4308.0242,N,00600.5577,E,1,09,0.9,65.8,M,49.0,M,,0000*67
$GPVTG,24.29,T,,M,16.70,N,30.9,K*57
$GPGGA,113312.000,4308.0288,N,00600.5598,E,1,08,0.9,66.6,M,49.0,M,,0000*6F
$GPVTG,15.80,T,,M,17.07,N,31.6,K*59
$GPGGA,113313.000,4308.0340,N,00600.5612,E,1,08,0.9,66.5,M,49.0,M,,0000*69
$GPVTG,9.94,T,,M,18.20,N,33.7,K*68
$GPGGA,113314.000,4308.0397,N,00600.5603,E,1,09,0.9,67.2,M,49.0,M,,0000*63
$GPVTG,357.13,T,,M,19.31,N,35.8,K*67
$GPGGA,113315.000,4308.0462,N,00600.5579,E,1,09,0.9,68.8,M,49.0,M,,0000*64
$GPVTG,349.20,T,,M,23.68,N,43.9,K*6D
$GPGGA,113316.000,4308.0529,N,00600.5556,E,1,09,0.9,69.3,M,49.0,M,,0000*6E
$GPVTG,345.08,T,,M,24.15,N,44.7,K*6F
$GPGGA,113317.000,4308.0596,N,00600.5522,E,1,08,0.9,67.5,M,49.0,M,,0000*61
$GPVTG,343.01,T,,M,22.98,N,42.6,K*64
$GPGGA,113318.000,4308.0661,N,00600.5494,E,1,07,1.0,65.9,M,49.0,M,,0000*60
